,customer_id,customer_name,customer_gender,kids_home,teens_home,number_complaints,distinct_stores_visited,spend_groceries,spend_electronics,typical_hour,spend_vegetables,spend_nonalcohol_drinks,spend_alcohol_drinks,spend_meat,spend_fish,spend_hygiene,spend_videogames,spend_petfood,total_distinct_products,year_first_transaction,latitude,longitude,has_loyalty_card,treated_percentage_of_products_bought_promotion,Education,Children,Age,Total Amount Spent,percentage_spend_groceries,percentage_spend_electronics,percentage_spend_vegetables,percentage_spend_nonalcohol_drinks,percentage_spend_alcohol_drinks,percentage_spend_meat,percentage_spend_fish,percentage_spend_hygiene,percentage_spend_videogames,percentage_spend_petfood,cluster
8,9,Bsc. Nadine Garcia,female,6,4,1,1,5908.0,533.0,19.0,473.0,525.0,225.0,718.0,1351.0,989.0,619.0,1039.0,507.0,2009,38.73012909385201,-9.164006820908403,1,0.1915676720420988,Bsc,10,63,12380.0,0.4772213247172859,0.0430533117932148,0.0382067851373182,0.0424071082390953,0.0181744749596122,0.0579967689822294,0.1091276252019386,0.079886914378029,0.05,0.0839256865912762,Big Families
15,18,Phd. Bruno Goldbeck,male,3,0,1,1,4729.0,987.0,14.0,559.0,614.0,343.0,955.0,732.0,831.0,813.0,1284.0,428.0,2013,38.737679237257225,-9.172308637926648,1,0.1310687908785142,Phd,3,80,11847.0,0.3991727863594159,0.0833122309445429,0.0471849413353591,0.0518274668692496,0.0289524774204439,0.0806111251793703,0.0617877943783236,0.0701443403393264,0.0686249683464168,0.1083818688275512,Big Families
17,20,Msc. Arlene Hernandez,female,3,1,1,2,3405.0,2679.0,16.0,452.0,450.0,140.0,922.0,1195.0,1467.0,1147.0,918.0,234.0,2012,38.79580846144206,-9.202229661220075,1,0.2534887539209757,Msc,4,49,12775.0,0.2665362035225049,0.209706457925636,0.0353816046966731,0.035225048923679,0.010958904109589,0.0721722113502935,0.0935420743639921,0.1148336594911937,0.089784735812133,0.0718590998043052,Big Families
33,39,Msc. Dawn Cannon,female,4,3,0,1,5184.0,231.0,23.0,644.0,449.0,62.0,1524.0,815.0,1838.0,1036.0,1033.0,803.0,2010,38.71162243378552,-9.184993740338864,1,0.111126339742851,Msc,7,68,12816.0,0.4044943820224719,0.0180243445692883,0.0502496878901373,0.0350343320848938,0.0048377028714107,0.1189138576779026,0.0635923845193508,0.1434144818976279,0.08083645443196,0.0806023720349563,Big Families
38,44,Bsc. Sylvia Jones,female,4,2,1,1,4704.0,657.0,19.0,453.0,388.0,190.0,259.0,1907.0,1045.0,1256.0,723.0,1145.0,2010,38.74552487541212,-9.163240614691263,1,0.2666907492335796,Bsc,6,33,11582.0,0.4061474702123985,0.0567259540666551,0.039112415817648,0.0335002590226213,0.016404766016232,0.0223622863063374,0.1646520462787083,0.0902262130892764,0.108444137454671,0.0624244517354515,Big Families
41,47,Phd. Lillian Moore,female,3,0,1,1,6796.0,3441.0,23.0,555.0,613.0,283.0,1262.0,1528.0,1110.0,1150.0,1093.0,176.0,2006,38.73420200373784,-9.17278947184662,1,0.1613124927872491,Phd,3,78,17831.0,0.3811339801469351,0.1929785205540911,0.031125567831305,0.0343783298749369,0.0158712354887555,0.0707756155010936,0.0856934552184398,0.06225113566261,0.064494419830632,0.0612977398912007,Big Families
42,49,Phd. Archie Mickel,male,4,3,1,1,5762.0,1487.0,16.0,615.0,664.0,201.0,1307.0,1263.0,618.0,986.0,767.0,207.0,2005,38.77100873900209,-9.112035706547148,1,0.3246951763058752,Phd,7,84,13670.0,0.4215069495245062,0.1087783467446964,0.0449890270665691,0.0485735186539868,0.0147037307973664,0.0956108266276517,0.0923920994879297,0.0452084857351865,0.0721287490855888,0.0561082662765179,Big Families
56,64,Msc. Homer Rodriguez,male,2,3,1,1,5206.0,2997.0,9.0,549.0,493.0,212.0,1615.0,780.0,893.0,961.0,793.0,345.0,2005,38.75647206963075,-9.207153505150409,1,0.2534887539209757,Msc,5,60,14499.0,0.3590592454652045,0.2067039106145251,0.0378646803227808,0.0340023449893096,0.0146216980481412,0.111386992206359,0.0537968135733498,0.0615904545141044,0.0662804331333195,0.0546934271329057,Big Families
73,87,Phd. Milagro Amelung,female,3,3,1,1,4483.0,1672.0,22.0,546.0,603.0,386.0,490.0,1414.0,1002.0,1328.0,847.0,740.0,2009,38.711422549950406,-9.17072126961104,1,0.2426022473897754,Phd,6,46,12771.0,0.351029676611072,0.1309216192937123,0.0427531125205543,0.0472163495419309,0.0302247278991465,0.0383681779030616,0.1107195990916921,0.0784590086915668,0.1039855923576853,0.0663221360895779,Big Families
85,100,Phd. Patrick Aichele,male,3,2,1,1,5992.0,1939.0,18.0,456.893937976519,301.0,494.0,589.0,1152.0,1480.0,646.0,812.0,599.0,2011,38.69897750800673,-9.158230227918024,1,0.2034240835148474,Phd,5,59,13861.89393797652,0.4322641643927249,0.139879875627085,0.0329604266214154,0.021714204519728,0.0356372658895203,0.0424905862528896,0.0831055269326467,0.1067675172398586,0.0466025784709112,0.0585778540532197,Big Families
86,101,Phd. Kendrick Trudeau,male,3,1,1,1,5599.0,1013.0,21.0,459.0,401.0,323.0,929.0,1175.0,724.0,928.0,971.0,722.0,2008,38.72720886094116,-9.088089258777211,1,0.0582846040051373,Phd,4,54,12522.0,0.4471330458393228,0.0808976201884683,0.0366554863440344,0.0320236383964223,0.0257946015013576,0.0741894266091678,0.0938348506628334,0.0578182398977799,0.0741095671617952,0.077543523398818,Big Families
89,104,Phd. Brian Stevens,male,3,0,1,1,4110.0,3035.0,16.0,503.0,551.0,332.0,1180.0,882.0,1130.0,699.0,1030.0,395.0,2013,38.75087532917605,-9.109315384472676,1,0.3380594179713628,Phd,3,40,13452.0,0.3055307760927743,0.225617008623253,0.0373922093369015,0.0409604519774011,0.0246803449301219,0.087719298245614,0.0655664585191793,0.084002378828427,0.0519625334522747,0.0765685399940529,Big Families
92,108,Msc. Brittany Vaughan,female,2,2,1,2,5731.0,1137.0,22.0,404.0,473.0,462.0,1028.0,1911.0,1709.0,1065.0,1316.0,697.0,2013,38.74426295296608,-9.156995273542584,1,0.2242321589272252,Msc,4,41,15236.0,0.3761485954318719,0.0746258860593331,0.0265161459700708,0.03104489367288,0.0303229194014176,0.0674717773693883,0.1254266211604095,0.1121685481753741,0.0699002362824888,0.0863743764767655,Big Families
102,121,Msc. Merlyn Lopez,female,2,3,1,1,3314.0,4059.0,16.0,321.0,528.0,342.0,966.0,521.0,1257.0,1360.0,844.0,898.0,2011,38.78324342073373,-9.100461897372467,1,0.2616763691164204,Msc,5,36,13512.0,0.2452634695085849,0.3003996447602131,0.0237566607460035,0.039076376554174,0.0253108348134991,0.0714920071047957,0.0385583185316755,0.0930284191829484,0.1006512729425695,0.0624629958555358,Big Families
112,133,Bsc. Cynthia Thomas,female,0,3,1,1,5558.0,2325.0,24.0,488.0,406.0,417.0,906.0,648.0,1039.0,1163.0,764.0,412.0,2013,38.77406620109261,-9.205329578923015,1,0.2515287098506462,Bsc,3,59,13714.0,0.4052792766515969,0.1695347819746244,0.0355840746682222,0.0296047834329881,0.0304068834767391,0.0660638763307568,0.0472509843955082,0.0757619950415633,0.08480385008021,0.0557094939477905,Big Families
114,135,Msc. Jesse Caballero,male,1,1,2,1,5505.0,2278.0,20.0,412.0,450.0,168.0,1018.0,524.0,863.0,803.0,1136.0,611.0,2011,38.72943242901013,-9.191355473518149,1,0.1111179021894608,Msc,2,51,13157.0,0.4184084517747207,0.1731397735045983,0.0313141293607965,0.0342023257581515,0.0127688682830432,0.0773732613817739,0.0398267082161587,0.0655924602872995,0.0610321501862126,0.0863418712472448,Big Families
128,151,Bsc. Jason Marino,male,2,4,1,1,4446.0,2811.0,13.52057966862436,361.0,376.0,535.0,1367.0,779.0,1207.0,940.0,1363.0,242.0,2013,38.719592297034566,-9.155877383459073,1,0.1744064060953197,Bsc,6,52,14185.0,0.3134296792386323,0.1981670778991892,0.025449418399718,0.026506873457878,0.0377158970743743,0.0963694043003172,0.0549171660204441,0.0850898836799436,0.0662671836446951,0.0960874162848079,Big Families
131,155,Msc. Christopher Blount,male,5,4,1,1,5271.0,638.0,9.0,533.0,406.0,262.0,550.0,1024.0,864.0,1187.0,1176.0,69.0,2011,38.71280820837716,-9.131207006521231,1,0.0741053195417119,Msc,9,81,11911.0,0.4425321131726975,0.0535639324993703,0.0447485517588783,0.0340861388632356,0.0219964738477038,0.0461758038787675,0.0859709512215599,0.0725379900931911,0.0996557803710855,0.0987322642935102,Big Families
144,169,Msc. Viola Mann,female,2,0,1,1,4576.0,1763.0,15.0,712.0,429.0,194.0,1381.0,726.0,782.0,1212.0,792.0,604.0,2013,38.75154403248492,-9.067823503709706,1,0.0712468423384569,Msc,2,43,12567.0,0.3641282724596164,0.1402880560197342,0.0566563221134717,0.034137025543089,0.0154372563061987,0.1098909843240232,0.0577703509190737,0.0622264661414816,0.0964430651706851,0.0630222010026259,Big Families
150,177,Msc. Kathryn Hilburn,female,3,3,1,1,4749.0,1395.0,9.0,554.0,722.0,206.0,945.0,835.0,1299.0,1197.0,780.0,483.0,2009,38.74896152554368,-9.127462365648183,1,0.2235127802672604,Msc,6,68,12682.0,0.3744677495663144,0.1099984229616779,0.0436839615202649,0.0569310834253272,0.0162434947169216,0.0745150607159754,0.0658413499448036,0.102428639015928,0.0943857435735688,0.0615044945592177,Big Families
154,181,Msc. Lawrence Grimm,male,3,1,1,1,4336.0,2918.0,9.0,528.0,439.0,279.0,560.0,1177.0,619.0,1033.0,682.0,463.0,2011,38.77345581353195,-9.198015429125777,1,0.2230427331360704,Msc,4,57,12571.0,0.3449208495744173,0.2321215495982817,0.0420014318669954,0.0349216450560814,0.0221939384297191,0.0445469731922679,0.0936281918701773,0.049240315010739,0.0821732559064513,0.0542518494948691,Big Families
156,184,Bsc. Melissa Ferreira,female,0,2,1,1,5530.0,1300.0,15.0,493.0,581.0,419.0,603.0,1066.0,1229.0,1323.0,1372.0,1105.0,2010,38.73743272454932,-9.170725288400869,1,0.2408328366848715,Bsc,2,56,13916.0,0.39738430583501,0.0934176487496407,0.035426846795056,0.0417505030181086,0.0301092267893072,0.0433314170738718,0.0766024719747053,0.0883156079333141,0.0950704225352112,0.0985915492957746,Big Families
159,187,Msc. Tish Dirks,female,6,1,1,2,4669.0,1520.0,9.0,487.0,541.0,124.0,1543.0,268.0,986.0,399.0,806.0,756.0,2017,38.78222777642379,-9.153175558207645,1,0.2402945883293282,Msc,7,32,11343.0,0.4116195010138411,0.134003350083752,0.0429339680860442,0.047694613417967,0.0109318522436745,0.1360310323547562,0.0236269064621352,0.0869258573569602,0.0351758793969849,0.0710570395838843,Big Families
176,205,Msc. John Conrad,male,3,1,1,1,5304.0,2743.0,19.0,509.0,478.0,455.0,1610.0,1313.0,810.0,841.0,1572.0,255.0,2009,38.77297245173538,-9.180159469996436,1,0.214951184222818,Msc,4,37,15635.0,0.3392388871122481,0.1754397185801087,0.0325551646945954,0.0305724336424688,0.0291013751199232,0.1029740965781899,0.0839782539174928,0.0518068436200831,0.0537895746722097,0.1005436520626798,Big Families
183,214,Msc. Donovan Denney,male,3,1,1,1,4497.0,2370.0,9.0,577.0,628.0,386.0,812.0,998.0,791.0,739.0,1432.0,302.0,2005,38.77946114988691,-9.117960376635583,1,0.2182297247727947,Msc,4,62,13230.0,0.3399092970521541,0.1791383219954648,0.0436130007558578,0.0474678760393046,0.0291761148904006,0.0613756613756613,0.0754346182917611,0.0597883597883597,0.0558578987150415,0.1082388510959939,Big Families
185,216,Phd. James Bidwell,male,1,2,1,1,5797.0,3152.0,16.0,635.0,510.0,509.0,23.0,1184.0,326.0,689.0,885.0,328.0,2009,38.718817630715954,-9.211376216312676,1,0.1476565743516621,Phd,3,74,13710.0,0.4228300510576221,0.2299051787016776,0.0463165572574762,0.037199124726477,0.037126185266229,0.0016776075857038,0.086360320933625,0.023778264040846,0.0502552881108679,0.0645514223194748,Big Families
191,224,Phd. Billie Lopez,female,1,4,1,1,4274.0,1732.0,9.0,524.0,593.0,228.0,712.0,560.0,1206.0,1235.0,935.0,576.0,2009,38.77258022747088,-9.169689244428753,1,0.0099171974363232,Phd,5,36,11999.0,0.356196349695808,0.1443453621135094,0.0436703058588215,0.0494207850654221,0.0190015834652887,0.0593382781898491,0.0466705558796566,0.1005083756979748,0.1029252437703141,0.0779231602633552,Big Families
192,225,Msc. Scott Grinnell,male,3,0,1,1,5410.0,1910.0,23.0,560.0,505.0,75.0,1098.0,1119.0,1231.0,768.0,927.0,586.0,2007,38.70592222824892,-9.202315579877784,1,0.261315969418464,Msc,3,62,13603.0,0.3977063882966992,0.1404102036315518,0.0411673895464235,0.0371241637873998,0.005513489671396,0.0807174887892376,0.0822612658972285,0.0904947438065132,0.0564581342350952,0.0681467323384547,Big Families
197,233,Msc. Georgia Crudup,female,5,1,0,1,5109.0,1258.0,6.0,393.0,562.0,156.0,763.0,1417.0,979.0,603.0,784.0,411.0,2016,38.75621987916744,-9.144614857924337,1,0.1711271272669632,Msc,6,46,12024.0,0.4249001996007984,0.1046240851630073,0.0326846307385229,0.0467398536260811,0.0129740518962075,0.0634564204923486,0.1178476380572189,0.081420492348636,0.0501497005988023,0.0652029274783765,Big Families
213,251,Phd. Renee Robinson,female,3,2,1,1,5518.0,2065.0,19.0,462.0,407.0,144.0,849.0,787.0,1152.0,1053.0,755.0,827.0,2010,38.69942502409842,-9.15893629749527,1,0.2259936242888383,Phd,5,74,13192.0,0.4182838083687083,0.156534263189812,0.0350212249848393,0.0308520315342631,0.010915706488781,0.0643571861734384,0.0596573681018799,0.0873256519102486,0.0798211036992116,0.0572316555488174,Big Families
214,252,Phd. Orville Hogue,male,5,1,2,1,3854.0,1027.0,21.0,615.0,562.0,177.0,1109.0,696.0,893.0,1179.0,1020.0,601.0,2010,38.73419192412883,-9.178981354049029,1,0.3092758935282743,Phd,6,55,11132.0,0.3462091268415379,0.0922565576715774,0.0552461372619475,0.0504850880344951,0.015900107797341,0.0996227093065037,0.0625224577793747,0.0802191879266978,0.1059108875314408,0.0916277398490837,Big Families
215,253,Msc. Sharon Armstead,female,2,1,1,1,4299.0,3006.0,19.0,341.0,714.0,273.0,957.0,1557.0,1895.0,829.0,699.0,198.0,2013,38.74912250194994,-9.201150880201876,1,0.354219474240016,Msc,3,46,14570.0,0.2950583390528483,0.2063143445435827,0.0234042553191489,0.0490048043925875,0.0187371310912834,0.0656829100892244,0.1068634179821551,0.1300617707618394,0.0568977350720658,0.0479752916952642,Big Families
218,257,Bsc. Darrell Wachter,male,5,3,1,1,5414.0,3288.0,13.0,619.0,524.0,372.0,1392.0,619.0,730.0,1128.0,759.0,194.0,2010,38.71218036437664,-9.176530115143054,1,0.1987920338405438,Bsc,8,70,14845.0,0.3647019198383294,0.221488716739643,0.0416975412596834,0.0352980801616705,0.0250589424048501,0.0937689457729875,0.0416975412596834,0.0491748063320983,0.0759851801953519,0.0511283260357022,Big Families
220,259,Phd. Robbie Mcdaniel,female,1,2,1,1,5441.0,1374.0,16.0,545.0,683.0,240.0,673.0,1311.0,829.0,783.0,1065.0,621.0,2008,38.73859971981935,-9.215142464488345,1,0.1095851202603653,Phd,3,70,12944.0,0.420349196538937,0.1061495673671199,0.0421044499381953,0.052765760197775,0.0185414091470951,0.0519932014833127,0.1012824474660074,0.0640451174289246,0.060491347342398,0.0822775030902348,Big Families
224,263,Msc. Edna Sloan,female,1,3,1,1,3335.0,2431.0,20.0,409.0,571.0,278.0,744.0,872.0,1534.0,1150.0,323.0,540.0,2012,38.73726817450652,-9.185908649557934,1,0.1270772347462594,Msc,4,67,11647.0,0.2863398299991414,0.2087232763801837,0.0351163389714089,0.0490255001287885,0.0238688074182192,0.063879110500558,0.0748690649952777,0.131707735897656,0.098737872413497,0.0277324632952691,Big Families
226,265,Phd. Harry Pacific,male,3,1,1,1,4576.0,1636.0,23.0,508.0,395.0,259.0,895.0,717.0,1128.0,1210.0,670.0,303.0,2018,38.7530113646113,-9.143848910402465,1,0.1101931378662788,Phd,4,28,11994.0,0.3815240953810238,0.1364015341003835,0.0423545105886276,0.0329331332332833,0.0215941303985326,0.0746206436551609,0.0597798899449724,0.0940470235117558,0.1008837752209438,0.0558612639653159,Big Families
229,268,Phd. Richard Defalco,male,6,3,1,1,5296.0,3517.0,20.0,574.0,599.0,481.0,1458.0,650.0,661.0,860.0,1447.0,902.0,2007,38.72199499305672,-9.140673088410578,1,0.2724602896126719,Phd,9,45,15543.0,0.3407321623882133,0.2262754937914173,0.0369298076304445,0.0385382487293315,0.030946406742585,0.0938042848870874,0.0418194685710609,0.0425271826545711,0.0553303738017113,0.0930965708035771,Big Families
230,270,Bsc. Dee Kinroth,female,5,1,1,1,4243.0,4208.0,23.0,565.0,593.0,183.0,1314.0,297.0,333.0,1087.0,367.0,814.0,2012,38.78765570437943,-9.201698611664035,1,0.1409141474890256,Bsc,6,58,13190.0,0.3216830932524639,0.3190295678544352,0.0428354814253222,0.0449583017437452,0.013874147081122,0.0996209249431387,0.0225170583775587,0.0252463987869598,0.0824109173616376,0.0278241091736163,Big Families
245,286,Msc. Jasper Walker,male,2,2,1,1,5879.0,1180.0,20.0,645.0,529.0,300.0,353.0,1279.0,769.0,1095.0,1323.0,46.0,2008,38.74898116705664,-9.12003499586348,1,0.2317520503732344,Msc,4,72,13352.0,0.4403085680047933,0.0883762732174955,0.0483073696824445,0.039619532654284,0.0224685440383463,0.0264379868184541,0.0957908927501497,0.057594367884961,0.082010185739964,0.0990862792091072,Big Families
250,291,Phd. Leon Casper,male,2,1,1,1,5307.0,1647.0,24.0,435.0,625.0,369.0,589.0,756.0,1184.0,1101.0,706.0,566.0,2011,38.79571363891503,-9.15719518152661,1,0.2065732801889455,Phd,3,83,12719.0,0.4172497837880336,0.1294913122100794,0.0342008019498388,0.0491390832612626,0.0290117147574494,0.0463086720654139,0.0594386351128233,0.093089079330136,0.0865634090730403,0.0555075084519223,Big Families
267,311,Phd. Jaclyn Bonham,female,0,2,1,1,5500.0,1956.0,13.0,630.0,526.0,127.0,1006.0,849.0,1039.0,1459.0,1276.0,685.0,2006,38.80260971930965,-9.078005887182556,1,0.1591477526075727,Phd,2,81,14368.0,0.3827951002227171,0.1361358574610245,0.0438474387527839,0.036609131403118,0.0088390868596881,0.0700167037861915,0.0590896436525612,0.0723134743875278,0.1015451002227171,0.0888084632516703,Big Families
274,319,Bsc. Christopher Boyle,male,2,3,1,1,3882.0,2507.0,13.52057966862436,589.0,402.0,189.0,1472.0,1010.0,1283.0,834.0,1124.0,836.0,2012,38.74673502806789,-9.19478351844509,1,0.0588966963407644,Bsc,5,68,13292.0,0.2920553716521216,0.1886096900391212,0.0443123683418597,0.0302437556424917,0.0142190791453505,0.1107433042431537,0.0759855552211856,0.0965242250978031,0.0627445079747216,0.0845621426421908,Big Families
280,326,Bsc. Ryan Webb,male,2,1,1,1,4583.0,2208.0,15.0,558.0,457.0,242.0,1071.0,1471.4238457539814,1230.0,927.0,1894.0,307.0,2013,38.69875779658894,-9.136414063556664,1,0.3250188092808085,Bsc,3,67,14641.42384575398,0.3130160050198309,0.1508050052550265,0.0381110475236887,0.0312128113231644,0.0165284471339295,0.0731486234728865,0.1004973191989585,0.0840082230360881,0.0633135144345152,0.1293590036019113,Big Families
284,330,Phd. Donald Funes,male,5,2,0,2,5463.0,3664.0,16.0,456.0,255.0,267.0,1556.0,929.0,706.0,646.0,1181.0,313.0,2014,38.72521067433142,-9.194587790164388,1,0.3108883376886479,Phd,7,50,15123.0,0.3612378496330093,0.2422799709052436,0.0301527474707399,0.0168617337829795,0.0176552271374727,0.1028896382992792,0.0614296105270118,0.0466838590226806,0.0427163922502149,0.0780929709713681,Big Families
286,334,Bsc. Annette Connolly,female,0,1,1,1,5259.0,3080.0,15.0,616.0,498.0,265.0,1248.0,1198.0,1705.0,1227.0,1389.0,84.0,2008,38.79040497841972,-9.175937621107831,1,0.0930753765410261,Bsc,1,51,16485.0,0.31901728844404,0.1868365180467091,0.0373673036093418,0.0302092811646951,0.0160752198968759,0.075705186533212,0.0726721261753109,0.1034273582044282,0.0744313011828935,0.0842584167424931,Big Families
294,343,Phd. Constance Hollis,female,3,2,1,1,5689.0,475.0,18.0,407.0,712.0,194.0,1020.0,927.0,792.0,832.0,981.0,718.0,2006,38.7657499834616,-9.190910814524775,1,0.128696478502106,Phd,5,43,12029.0,0.472940394047718,0.0394879042314406,0.0338348989940976,0.0591902901321805,0.0161276914124199,0.0847950785601463,0.07706376257378,0.0658408845290547,0.0691661817274919,0.0815529137916701,Big Families
308,359,Msc. Daniel Moores,male,3,3,1,1,5373.0,1851.0,19.0,696.0,716.0,363.0,455.0,1471.4238457539814,1423.0,1245.0,1246.0,360.0,2007,38.7388458566068,-9.189068470726545,1,0.0473947363901883,Msc,6,47,14839.42384575398,0.3620760519982979,0.1247353009955051,0.046902090487775,0.0482498517086881,0.0244618661595723,0.0306615677757724,0.0991563999416999,0.0958932108679653,0.0838981360018389,0.0839655240628846,Big Families
326,379,Msc. Rosemary Ho,female,2,4,1,2,6618.0,117.0,16.0,507.0,539.0,162.0,941.0,889.0,1244.0,1106.0,968.0,1138.0,2012,38.72731008738996,-9.155053554623043,1,0.3151828405670372,Msc,6,30,13091.0,0.5055381559850279,0.0089374379344587,0.038728897715988,0.0411733251852417,0.0123749140630967,0.0718814452677411,0.0679092506302039,0.095027117867237,0.0844855244060805,0.0739439309449239,Big Families
328,382,Phd. Harold Corbo,male,2,1,1,1,5670.0,2191.0,21.0,384.0,575.0,434.0,521.0,561.0,1290.0,1028.0,1216.0,307.0,2005,38.75655752915546,-9.17023685041516,1,0.068141385924148,Phd,3,73,13870.0,0.4087959625090122,0.1579668348954578,0.0276856524873828,0.0414563806777217,0.0312905551550108,0.0375630857966834,0.0404470079307858,0.0930064888248017,0.0741167988464311,0.0876712328767123,Big Families
333,387,Bsc. Madge Gomez,female,2,3,1,1,4282.0,1953.0,16.0,456.0,292.0,372.0,1056.0,35.0,1457.0,1392.0,753.0,397.0,2015,38.72739889172323,-9.10298039870057,1,0.1072159430970889,Bsc,5,31,12048.0,0.3554116865869854,0.162101593625498,0.0378486055776892,0.0242363877822045,0.0308764940239043,0.0876494023904382,0.0029050464807436,0.1209329349269588,0.1155378486055776,0.0625,Big Families
345,400,Phd. Robert Huff,male,0,2,1,1,4349.0,2456.0,12.0,598.0,567.0,336.0,1432.0,794.0,1119.0,1015.0,1470.0,365.0,2020,38.70128152906219,-9.192809884737636,1,0.3987144676728855,Phd,2,26,14136.0,0.3076542161856253,0.1737408036219581,0.0423033389926428,0.0401103565365025,0.0237691001697792,0.1013016411997736,0.0561686474250141,0.0791595925297113,0.0718024900962082,0.1039898132427843,Big Families
349,404,Bsc. David Garza,male,0,3,0,1,5867.0,2079.0,14.0,458.0,384.0,198.0,1162.0,707.0,1433.0,1559.0,1343.0,673.0,2010,38.70742724928353,-9.191633936362594,1,0.3572040229242593,Bsc,3,68,15190.0,0.3862409479921,0.1368663594470046,0.0301514154048716,0.0252797893350888,0.0130348913759052,0.0764976958525345,0.0465437788018433,0.0943383805134957,0.1026333113890717,0.0884134298880842,Big Families
351,406,Phd. Nellie Campbell,female,1,3,1,1,4784.0,1667.0,24.0,563.0,608.0,306.0,701.0,617.0,473.0,1185.0,1143.0,280.0,2010,38.73556960975446,-9.18020446738216,1,0.1641667695927346,Phd,4,53,12047.0,0.397111314020088,0.1383746990952104,0.0467336266290362,0.0504689964306466,0.0254005146509504,0.058188760687308,0.0512160703909687,0.0392628870258155,0.0983647381090728,0.0948783929609031,Big Families
353,410,Msc. William Scerbo,male,4,2,1,1,4796.0,3808.0,21.0,618.0,633.0,96.0,438.0,514.0,1092.0,1255.0,1348.0,1005.0,2014,38.73138501583836,-9.15003171451052,1,0.4312554096503095,Msc,6,35,14598.0,0.3285381559117687,0.2608576517331141,0.042334566378956,0.0433621043978627,0.0065762433210028,0.0300041101520756,0.0352103027812029,0.0748047677764077,0.0859706809151938,0.0923414166324154,Big Families
361,421,Phd. Jeffery Jimenez,male,4,4,1,1,4035.0,2877.0,20.0,398.0,395.0,270.0,632.0,30.0,1308.0,632.0,1133.0,980.0,2007,38.74463531944354,-9.080067777110507,1,0.2471137109322872,Phd,8,65,11710.0,0.3445772843723313,0.2456874466268147,0.0339880444064901,0.033731853116994,0.0230572160546541,0.0539709649871904,0.0025619128949615,0.1116994022203245,0.0539709649871904,0.0967549103330486,Big Families
363,424,Phd. Minnie Walker,female,0,1,1,2,3896.0,3615.0,24.0,446.0,467.0,300.0,952.0,1441.0,1936.0,715.0,736.0,302.0,2018,38.74250672616643,-9.225323581017651,1,0.1396953576986376,Phd,1,28,14504.0,0.26861555432984,0.2492415885273028,0.030750137892995,0.0321980143408714,0.0206839492553778,0.0656370656370656,0.0993519029233315,0.1334804191947049,0.0492967457253171,0.0507446221731936,Big Families
365,426,Phd. Nora Mayall,female,3,3,1,1,5135.0,1692.0,11.0,439.0,418.0,280.0,273.0,1554.0,437.0,1028.0,1502.0,690.0,2010,38.73322024297912,-9.073032274105172,1,0.3992772337980639,Phd,6,76,12758.0,0.4024925536918012,0.1326226681298009,0.0344097820975074,0.0327637560746198,0.0219470136385013,0.0213983382975388,0.1218059256936824,0.0342530177143752,0.0805768929299263,0.1177300517322464,Big Families
370,433,Bsc. Gerald Mitchell,male,2,2,1,2,4868.0,1865.0,18.0,639.0,603.0,294.0,1191.0,1343.0,322.0,1372.0,1059.0,739.0,2011,38.76279779302404,-9.172693672461978,1,0.2112059645804724,Bsc,4,54,13556.0,0.3591029802301564,0.1375774564768368,0.0471377987606963,0.0444821481262909,0.021687813514311,0.0878577751549129,0.0990705222779581,0.023753319563293,0.101209796400118,0.0781203894954263,Big Families
374,437,Msc. Kristin Smith,female,5,4,1,2,5402.0,3197.0,21.0,559.0,595.0,258.0,810.0,897.0,908.0,420.0,994.0,447.0,2015,38.69892498358593,-9.179813081277924,1,0.2350010441047796,Msc,9,61,14040.0,0.3847578347578347,0.2277065527065527,0.0398148148148148,0.0423789173789173,0.0183760683760683,0.0576923076923076,0.0638888888888888,0.0646723646723646,0.0299145299145299,0.0707977207977208,Big Families
378,441,Bsc. Henry Gutierrez,male,4,4,1,1,4307.0,2127.0,16.0,413.0,311.0,274.0,983.0,629.0,730.0,1096.0,680.0,701.0,2012,38.76644083052902,-9.115116017824926,1,0.201866637394458,Bsc,8,65,11550.0,0.3729004329004329,0.1841558441558441,0.0357575757575757,0.0269264069264069,0.0237229437229437,0.0851082251082251,0.0544588744588744,0.0632034632034632,0.0948917748917748,0.0588744588744588,Big Families
379,443,Phd. Bryan Gable,male,0,2,1,1,4417.0,2287.0,16.0,584.0,437.0,232.0,678.0,889.0,1653.0,1134.0,704.0,35.0,2011,38.76553593394183,-9.183799336679527,1,0.0701691430911117,Phd,2,46,13015.0,0.3393776411832501,0.1757203227045716,0.0448713023434498,0.0335766423357664,0.0178255858624663,0.0520937379946215,0.0683058009988474,0.1270072992700729,0.0871302343449865,0.0540914329619669,Big Families
380,444,Msc. Nickolas Nicolosi,male,3,1,0,1,4942.0,2628.0,22.0,466.0,650.0,236.0,1102.0,1471.4238457539814,1369.0,1269.0,1142.0,937.0,2008,38.72831075853544,-9.195020238448864,1,0.190485136811594,Msc,4,40,15275.42384575398,0.3235262111154904,0.1720410527744858,0.0305065184904529,0.0425520107699451,0.0154496531410877,0.0721420244130454,0.096326220510273,0.0896210811446998,0.0830746179493236,0.0747606096911959,Big Families
389,455,Msc. Brian Paiz,male,7,2,0,2,3819.0,2875.0,13.52057966862436,403.0,543.0,420.0,746.0,1582.0,550.0,583.0,1550.0,325.0,2013,38.73754733314079,-9.156851419129048,1,0.3739763671540386,Msc,9,83,13071.0,0.2921735138857012,0.2199525667508224,0.0308316119654196,0.041542345650677,0.0321322010557723,0.0570729094943003,0.121031290643409,0.0420778823349399,0.0446025552750363,0.1185831229439216,Big Families
390,458,Phd. Joseph Ciccone,male,2,2,1,2,6532.0,36.0,19.0,342.0,688.0,279.0,1290.0,1161.0,984.0,849.0,1135.0,58.0,2010,38.73806776321883,-9.07556073381092,1,0.0780790446465049,Phd,4,76,13296.0,0.4912755716004813,0.0027075812274368,0.0257220216606498,0.0517448856799037,0.0209837545126353,0.0970216606498195,0.0873194945848375,0.0740072202166065,0.0638537906137184,0.0853640192539109,Big Families
392,460,Bsc. Ana Binder,female,4,3,1,1,3572.0,3558.0,20.0,408.0,271.0,123.0,1175.0,1139.0,1054.0,880.0,1591.0,14.0,2019,38.74554730730007,-9.159316397558488,1,0.0448930596189612,Bsc,7,28,13771.0,0.2593856655290102,0.2583690363808002,0.0296274780335487,0.0196790356546365,0.0089318132307022,0.0853242320819112,0.0827100428436569,0.0765376515866676,0.0639024036017718,0.1155326410572943,Big Families
395,463,Bsc. Elli Robinson,female,3,3,1,1,4801.0,1947.0,18.0,559.0,549.0,220.0,906.0,456.0,2065.0,227.0,786.0,463.0,2010,38.72277230887858,-9.172078513932265,1,0.2418384159653011,Bsc,6,48,12516.0,0.3835890060722275,0.1555608820709491,0.0446628315755832,0.0438638542665388,0.0175775007989773,0.0723873441994247,0.0364333652924257,0.1649888143176733,0.0181367849153084,0.0627996164908916,Big Families
397,465,Msc. Donna Ling,female,4,2,1,2,4130.0,2320.0,12.0,403.0,594.0,288.0,615.0,1045.0,1146.0,496.0,340.0,549.0,2009,38.77990206454181,-9.10447474431851,1,0.2172396628016432,Msc,6,62,11377.0,0.3630130965984003,0.2039201898567285,0.0354223433242506,0.0522106003340072,0.0253142304649731,0.0540564296387448,0.0918519820690867,0.1007295420585391,0.0435967302452316,0.0298848554100377,Big Families
418,489,Bsc. Helen Arvesen,female,2,3,1,2,7802.0,2685.0,16.0,305.0,425.0,49.0,913.0,562.0,257.0,1111.0,882.0,522.0,2011,38.69780189083152,-9.131108638559928,1,0.1607581814353941,Bsc,5,63,14991.0,0.5204456006937496,0.1791074644786872,0.0203455406577279,0.028350343539457,0.0032686278433726,0.0609032085918217,0.0374891601627643,0.0171436195050363,0.0741111333466746,0.0588353011807084,Big Families
419,490,Msc. Russell Brooks,male,1,3,1,1,7111.0,2540.0,20.0,334.0,408.0,86.0,875.0,869.0,912.0,1252.0,1189.0,91.0,2009,38.767783662485535,-9.1710240193645,1,0.2930429002907493,Msc,4,70,15576.0,0.4565356959424756,0.1630713918849512,0.0214432460195172,0.0261941448382126,0.0055213148433487,0.056176168464304,0.0557909604519774,0.0585516178736517,0.0803800719054956,0.0763353877760657,Big Families
429,501,Phd. Heather Sevilla,female,2,1,0,1,5590.0,1535.0,15.0,455.0,327.0,353.0,522.0,1270.0,1282.0,1002.0,1271.0,726.0,2024,38.702662623974966,-9.220638343528249,1,0.1078020789727273,Phd,3,22,13607.0,0.4108179613434262,0.1128095833027118,0.0334386712721393,0.0240317483648122,0.025942529580363,0.0383626074814433,0.0933343132211361,0.0942162122436981,0.07363856838392,0.0934078048063496,Big Families
430,502,Phd. Dave Duke,male,1,2,1,1,4668.0,2732.0,23.0,584.0,478.0,423.0,454.0,1114.0,623.0,891.0,1001.0,800.0,2011,38.75298405468185,-9.126851481092569,1,0.1260765266926931,Phd,3,82,12968.0,0.3599629858112276,0.2106724244293646,0.0450339296730413,0.0368599629858112,0.0326187538556446,0.035009253547193,0.0859037631091918,0.0480413325107958,0.0687075879086983,0.0771900061690314,Big Families
435,507,Phd. Jeffrey Reynolds,male,7,0,0,1,4816.0,2306.0,18.0,625.0,480.0,249.0,713.0,1264.0,446.0,922.0,1182.0,541.0,2012,38.7460672924929,-9.147923814387063,1,0.180405070003345,Phd,7,74,13003.0,0.3703760670614474,0.1773436899177113,0.0480658309620856,0.0369145581788818,0.0191494270552949,0.0548334999615473,0.097208336537722,0.0342997769745443,0.0709067138352687,0.0909020995154964,Big Families
459,535,Msc. Gladys Lane,female,4,2,1,2,5241.0,2152.0,22.0,372.0,422.0,333.0,1128.0,923.0,1483.0,847.0,762.0,252.0,2013,38.76625752944179,-9.147145884476084,1,0.2482936004072068,Msc,6,49,13663.0,0.3835907194613189,0.1575056722535314,0.0272268169508892,0.0308863353582668,0.0243723925931347,0.0825587352704384,0.0675547098001903,0.1085413159628193,0.0619922418209763,0.0557710605284344,Big Families
460,536,Msc. James Selby,male,2,2,2,1,5280.0,3060.0,17.0,458.0,489.0,449.0,1601.0,837.0,865.0,762.0,717.0,501.0,2011,38.74707374338564,-9.154852754556336,1,0.2531549405610207,Msc,4,72,14518.0,0.3636864581898333,0.2107728337236534,0.0315470450475272,0.033682325389172,0.0309271249483399,0.1102768976443036,0.057652569224411,0.0595812095329935,0.0524865683978509,0.0493869679019148,Big Families
478,554,Msc. James Williams,male,2,2,1,1,4702.0,2292.0,20.0,397.0,662.0,378.0,578.0,1044.0,1392.0,1144.0,680.0,723.0,2011,38.76531531332584,-9.148156040713964,1,0.1805331621977783,Msc,4,47,13269.0,0.3543597859672922,0.1727334388424146,0.0299193609164217,0.049890722737207,0.0284874519556861,0.0435601778581656,0.0786796292109428,0.104906172281257,0.0862159921621825,0.0512472680684301,Big Families
482,560,Bsc. Alfredo Jackson,male,3,1,1,1,5126.0,4285.0,18.0,381.0,609.0,404.0,1151.0,674.0,1054.0,1295.0,712.0,93.0,2011,38.7320176583536,-9.142602640097332,1,0.0440107868145938,Bsc,4,60,15691.0,0.3266840864189663,0.2730864826970875,0.0242814352176406,0.0388120578675674,0.0257472436428525,0.0733541520616914,0.0429545599388184,0.0671722643553629,0.0825313874195398,0.0453763303804728,Big Families
495,575,Phd. Timothy Rodriguez,male,5,2,1,1,3181.0,1287.0,13.52057966862436,319.0,507.0,226.0,1269.0,1103.0,179.0,868.0,1002.0,332.0,2017,38.77473621562446,-9.194575307213594,1,0.3465970429436033,Phd,7,58,9941.0,0.3199879287798008,0.1294638366361533,0.0320893270294738,0.0510009053415149,0.0227341313751131,0.127653153606277,0.1109546323307514,0.0180062367971029,0.0873151594407001,0.1007946886631123,Big Families
501,582,Bsc. Robert Ornelas,male,2,2,0,1,5190.0,608.0,21.0,409.0,589.0,287.0,592.0,934.0,744.0,1591.0,888.0,162.0,2010,38.76205625584195,-9.16409792450791,1,0.1242240448197743,Bsc,4,70,11832.0,0.4386409736308316,0.0513860716700473,0.0345672751859364,0.0497802569303583,0.0242562542258282,0.0500338066260987,0.0789384719405003,0.0628803245436105,0.1344658553076403,0.075050709939148,Big Families
532,618,Bsc. Shannon Rodriquez,male,4,2,1,1,8464.0,3263.0,23.0,493.0,426.0,213.0,824.0,1486.0,1438.0,1180.0,958.0,615.0,2005,38.71173029501984,-9.170708231111783,1,0.2049130483908562,Bsc,6,38,18745.0,0.4515337423312883,0.1740730861563083,0.0263003467591357,0.022726060282742,0.011363030141371,0.0439583889037076,0.0792744731928514,0.0767137903440917,0.0629501200320085,0.051106961856495,Big Families
543,629,Bsc. Ellen Diaz,female,2,1,2,1,4402.0,824.0,21.0,518.0,424.0,267.0,846.0,642.0,1411.0,1574.0,921.0,342.0,2008,38.70974975789383,-9.157011556360976,1,0.1045497239115848,Bsc,3,40,11829.0,0.3721362752557274,0.0696593118606813,0.0437906839124186,0.0358441119283117,0.0225716459548567,0.0715191478569617,0.0542733958914532,0.1192831177614337,0.1330628117338743,0.077859497844281,Big Families
561,649,Bsc. Alva Smith,male,1,2,0,1,3591.0,3814.0,18.0,632.0,604.0,253.0,889.0,1157.0,967.0,613.0,1028.0,266.0,2010,38.72256469425642,-9.192691502019391,1,0.0126069228730891,Bsc,3,39,13548.0,0.2650575730735164,0.2815175671685858,0.0466489518748154,0.0445822261588426,0.0186743430764688,0.0656185414821375,0.0854000590493061,0.0713758488337762,0.0452465308532624,0.0758783584292884,Big Families
562,650,Msc. Tabatha Knapp,female,3,1,0,1,4914.0,3801.0,17.0,455.0,442.0,332.0,1350.0,884.0,688.0,1155.0,1532.0,282.0,2017,38.784759947972496,-9.159506129943733,1,0.1689191794579884,Msc,4,30,15553.0,0.3159519063846203,0.2443901498103259,0.0292548061467241,0.0284189545425319,0.0213463640455217,0.0867999742814891,0.0568379090850639,0.0442358387449366,0.0742622002186073,0.0985018967401787,Big Families
565,653,Phd. Richard Greco,male,3,1,1,1,1738.0,2316.0,20.0,556.0,403.0,134.0,1091.0,1737.0,544.0,714.0,1046.0,543.0,2009,38.71489586130614,-9.192269110468438,1,0.2936098808865554,Phd,4,53,10279.0,0.1690825955832279,0.2253137464733923,0.0540908648701235,0.0392061484580212,0.0130362875766125,0.1061387294483899,0.1689853098550442,0.0529234361319194,0.0694620099231442,0.1017608716801245,Big Families
571,661,Bsc. Theodore Terry,male,2,1,1,2,5270.0,2116.0,22.0,490.0,564.0,398.0,901.0,740.0,793.0,1129.0,1201.0,242.0,2007,38.75415246808983,-9.156586018971188,1,0.1909739922413796,Bsc,3,66,13602.0,0.3874430230848404,0.155565358035583,0.0360241141008675,0.0414644905161005,0.0292604028819291,0.0662402587854727,0.0544037641523305,0.0583002499632407,0.083002499632407,0.0882958388472283,Big Families
579,669,Msc. Mandi Blackwell,female,4,3,1,1,6233.0,1912.0,18.0,608.0,470.0,494.0,999.0,551.0,1243.0,1575.0,1595.0,1130.0,2009,38.72821357337008,-9.197388543898464,1,0.2753635963842984,Msc,7,73,15680.0,0.3975127551020408,0.121938775510204,0.0387755102040816,0.0299744897959183,0.0315051020408163,0.0637117346938775,0.0351403061224489,0.0792729591836734,0.1004464285714285,0.1017219387755102,Big Families
580,670,Bsc. Paul Sturdivant,male,3,1,1,1,4710.0,1288.0,9.0,617.0,405.0,357.0,1061.0,556.0,1165.0,1019.0,1291.0,461.0,2013,38.78744161887283,-9.163504492958914,1,0.2472655859514961,Bsc,4,56,12469.0,0.3777367872323361,0.1032961745127917,0.0494827171385034,0.0324805517683855,0.0286310048921324,0.0850910257438447,0.0445905846499318,0.0934317106423931,0.0817226722271232,0.1035367711925575,Big Families
583,674,Bsc. Tara Carder,female,3,2,1,2,5022.0,1456.0,13.0,682.0,600.0,220.0,1120.0,931.0,314.0,852.0,1185.0,283.0,2013,38.75767420632997,-9.18290242123282,1,0.1528262454096981,Bsc,5,82,12382.0,0.4055887578743337,0.1175900500726861,0.0550799547730576,0.0484574382167662,0.0177677273461476,0.090453884671297,0.0751897916330156,0.0253593926667743,0.0688095622678081,0.0957034404781134,Big Families
588,680,Bsc. Gary Smith,male,7,3,1,1,4677.0,1849.0,21.0,378.0,484.0,268.0,1222.0,1720.0,1197.0,1461.0,1174.0,797.0,2004,38.795941391402735,-9.162973368254589,1,0.0811723348896982,Bsc,10,73,14430.0,0.3241164241164241,0.1281358281358281,0.0261954261954261,0.0335412335412335,0.0185724185724185,0.0846846846846846,0.1191961191961192,0.0829521829521829,0.1012474012474012,0.0813582813582813,Big Families
601,698,Msc. Samuel Schall,male,2,3,1,1,6100.0,1503.0,22.0,686.0,842.0,483.0,1047.0,952.0,1349.0,855.0,1126.0,515.0,2010,38.74128470292542,-9.187187086115236,1,0.373412578032946,Msc,5,75,14943.0,0.4082178946663989,0.1005822124071471,0.0459077829083851,0.0563474536572308,0.0323228267416181,0.0700662517566753,0.0637087599544937,0.090276383590979,0.0572174262196346,0.0753530080974369,Big Families
603,701,Msc. Sherry Jones,female,4,4,1,2,4692.0,1034.0,9.0,548.0,458.0,93.0,1655.0,889.0,1291.0,826.0,1590.0,295.0,2013,38.76650418688583,-9.17869728085586,1,0.2554226699288249,Msc,8,65,13076.0,0.3588253288467421,0.079076170082594,0.041908840624044,0.0350260018354236,0.007112266748241,0.1265677577240746,0.0679871520342612,0.0987304986234322,0.0631691648822269,0.1215968185989599,Big Families
617,716,Msc. Anthony Streeter,male,4,1,1,1,7556.0,3052.0,21.0,518.0,808.0,161.0,1028.0,820.0,1570.0,820.0,897.0,37.0,2013,38.74909424131656,-9.09318992009674,1,0.0227291953589568,Msc,5,67,17230.0,0.4385374347069065,0.1771329077190946,0.0300638421358096,0.0468949506674405,0.0093441671503192,0.0596633778293673,0.0475914103308183,0.0911201392919326,0.0475914103308183,0.0520603598374927,Big Families
625,724,Msc. Kristy Slaney,female,1,2,1,1,5431.0,3610.0,17.0,549.0,657.0,351.0,1122.0,1471.4238457539814,880.0,1089.0,962.0,954.0,2013,38.73207865200468,-9.105442517762254,1,0.3056010616620496,Msc,3,66,16122.42384575398,0.3368600188135057,0.2239117414687453,0.034051951818931,0.0407506964390486,0.0217709200153821,0.0695925135534438,0.0912656719505297,0.0545823635713285,0.067545674919519,0.0596684474495659,Big Families
627,726,Bsc. Loretta Matos,female,5,1,1,1,4099.0,2320.0,19.0,619.0,481.0,344.0,804.0,259.0,343.0,1277.0,1241.0,41.0,2011,38.73829603659302,-9.13608548046322,1,0.2534887539209757,Bsc,6,40,11787.0,0.3477560023754984,0.1968270128107236,0.0525154831594129,0.0408076694663612,0.0291846950029693,0.0682107406464749,0.0219733604818868,0.0290998557733095,0.1083396962755578,0.1052854840078052,Big Families
629,730,Phd. Tracie Rogers,female,4,2,1,1,5574.0,2597.0,12.0,584.0,438.0,411.0,974.0,1106.0,1023.0,1175.0,869.0,504.0,2016,38.74183930452926,-9.165577732033093,1,0.3935507633865317,Phd,6,57,14751.0,0.3778726865975188,0.176055860619619,0.0395905362348315,0.0296929021761236,0.0278625177954037,0.0660294217341197,0.0749779675954172,0.0693512304250559,0.0796556165683682,0.0589112602535421,Big Families
634,736,Msc. Marshall Cunningham,male,3,1,1,2,6171.0,2404.0,9.0,585.0,575.0,251.0,200.0,1137.0,1445.0,748.0,865.0,300.0,2013,38.7055567453212,-9.132598278711264,1,0.266121684253841,Msc,4,32,14381.0,0.4291078506362561,0.1671650093873861,0.0406786732494263,0.0399833113135386,0.0174535845907795,0.0139072387177525,0.0790626521104234,0.1004797997357624,0.0520130728043946,0.0601488074542799,Big Families
646,749,Msc. Eleanor Botts,female,6,3,1,1,5100.0,1022.0,23.0,458.0,605.0,398.0,1991.0,1071.0,941.0,1273.0,1021.0,340.0,2010,38.78547710548318,-9.165906413461853,1,0.2410302991880084,Msc,9,47,13880.0,0.3674351585014409,0.0736311239193083,0.0329971181556196,0.0435878962536023,0.0286743515850144,0.1434438040345821,0.0771613832853025,0.0677953890489913,0.09171469740634,0.0735590778097982,Big Families
647,751,Msc. Byron Tarango,male,6,2,1,1,4634.0,2117.0,22.0,436.0,564.0,241.0,191.0,824.0,971.0,1065.0,1206.0,262.0,2014,38.77053664271556,-9.150351586381866,1,0.2449340589933726,Msc,8,77,12249.0,0.3783165972732468,0.1728304351375622,0.0355947424279533,0.0460445750673524,0.0196750755163686,0.0155931096416033,0.0672707976161319,0.0792717772879418,0.0869458731325006,0.0984570168993387,Big Families
649,753,Msc. Charles Shuttleworth,male,4,2,1,1,5785.0,2139.0,9.0,502.0,595.0,471.0,1266.0,1114.0,1476.0,841.0,1176.0,1.0,2014,38.72202142274112,-9.152253694650344,1,0.2059167057144076,Msc,6,75,15365.0,0.376505043931012,0.1392124959323137,0.0326716563618613,0.0387243735763098,0.0306540839570452,0.0823950536934591,0.07250244061178,0.0960624796615685,0.0547347868532378,0.0765375854214123,Big Families
650,754,Bsc. Tony Holbrook,male,3,2,1,1,4834.0,4044.0,18.0,625.0,479.0,163.0,1101.0,854.0,1537.0,1253.0,995.0,313.0,2007,38.77217437137056,-9.19267197458467,1,0.0340248188272414,Bsc,5,44,15885.0,0.304312244255587,0.254579792256846,0.0393452943028013,0.0301542335536669,0.0102612527541706,0.0693106704438149,0.0537614101353478,0.0967579477494491,0.0788794460182562,0.0626377085300598,Big Families
656,761,Msc. Pauline Cantu,female,2,3,2,1,4990.0,112.0,23.0,410.0,559.0,199.0,1746.0,1147.0,1222.0,1132.0,714.0,163.0,2009,38.7426002409678,-9.195627028981685,1,0.3023270281424976,Msc,5,58,12231.0,0.4079797236530128,0.0091570599296868,0.0335213800997465,0.0457035401847763,0.0162701332679257,0.1427520235467255,0.0937781048156324,0.0999100645899762,0.0925517128607636,0.0583762570517537,Big Families
659,765,Bsc. David Souter,male,6,2,1,1,4622.0,2077.0,19.0,387.0,392.0,384.0,346.0,1243.0,562.0,1820.0,1426.0,657.0,2008,38.74288007601388,-9.17157654873876,1,0.2456692763736837,Bsc,8,83,13259.0,0.3485934082509993,0.1566483143525152,0.029187721547628,0.0295648238932046,0.028961460140282,0.0260954823138999,0.0937476431103401,0.0423863036428086,0.1372652537898785,0.1075495889584433,Big Families
673,780,Bsc. Stephanie Hernandez,female,3,1,1,1,6245.0,2479.0,15.0,635.0,496.0,244.0,231.0,947.0,948.0,701.0,1337.0,555.0,2008,38.74178685799468,-9.20320215487031,1,0.1215258261410845,Bsc,4,37,14263.0,0.4378461754189161,0.1738063520998387,0.0445207880530042,0.0347752927154175,0.0171072004487134,0.0161957512444787,0.0663955689546378,0.0664656804318867,0.0491481455514267,0.0937390450816798,Big Families
684,792,Bsc. Olive Russo,female,2,4,1,1,6766.0,629.0,18.0,497.0,653.0,253.0,1574.0,558.0,175.0,1440.0,1132.0,309.0,2011,38.75717055668118,-9.144206410030026,1,0.2348300897291751,Bsc,6,74,13677.0,0.4946991299261534,0.0459896176062001,0.0363383782993346,0.0477443883892666,0.0184982086714922,0.1150837171894421,0.0407984207062952,0.0127952036265262,0.1052862469839877,0.0827666886013014,Big Families
685,794,Phd. Ryan Nance,male,2,2,0,2,6003.0,1419.0,13.0,561.0,381.0,382.0,1746.0,1075.0,1341.0,1414.0,638.0,425.0,2007,38.71301950286366,-9.183936433448908,1,0.3071944953823385,Phd,4,55,14960.0,0.4012700534759358,0.0948529411764705,0.0375,0.0254679144385026,0.0255347593582887,0.116711229946524,0.0718582887700534,0.089639037433155,0.0945187165775401,0.0426470588235294,Big Families
695,808,Phd. Louise Brewer,female,3,2,1,1,4749.0,2331.0,9.0,437.0,505.0,184.0,839.0,1260.0,845.0,724.0,962.0,553.0,2007,38.76944693663872,-9.171646937755588,1,0.2584672926771212,Phd,5,47,12836.0,0.3699750701153007,0.1815986288563415,0.0340448737924587,0.0393424742910564,0.0143346837020878,0.0653630414459333,0.0981614210034278,0.0658304767840448,0.0564038641321283,0.0749454658772203,Big Families
697,810,Msc. Yvonne Mccray,female,5,2,0,1,5904.0,1784.0,17.0,521.0,386.0,99.0,105.0,1218.0,1532.0,1025.0,855.0,661.0,2011,38.7578296146108,-9.20155838110436,1,0.2534887539209757,Msc,7,78,13429.0,0.4396455432273438,0.1328468240375307,0.0387966341499739,0.0287437634969096,0.0073721051455804,0.0078188993968277,0.090699233003202,0.114081465485144,0.0763273512547471,0.0636681808027403,Big Families
704,819,Msc. John Archie,male,3,2,1,1,5260.0,846.0,15.0,617.0,561.0,191.0,794.0,1189.0,185.0,1093.0,1116.0,988.0,2007,38.7378270986844,-9.160583349382454,1,0.205199175245851,Msc,5,36,11852.0,0.4438069524130948,0.0713803577455281,0.0520587242659466,0.0473337833277084,0.0161154235572055,0.0669929125885926,0.1003206209922376,0.0156091798852514,0.0922207222409719,0.0941613229834627,Big Families
705,820,Bsc. Shelby Rouse,female,2,2,1,1,4776.0,2259.0,19.0,744.0,573.0,316.0,631.0,1665.0,958.0,842.0,658.0,515.0,2017,38.73911913359628,-9.196691460964566,1,0.3707095357664337,Bsc,4,74,13422.0,0.3558337058560572,0.1683057666517657,0.0554313813142601,0.0426911041573535,0.0235434361496051,0.047012367754433,0.1240500670540903,0.0713753538965877,0.0627328267024288,0.0490239904634182,Big Families
718,835,Phd. Renee Black,female,1,2,1,1,4857.0,806.0,17.0,576.0,406.0,412.0,680.0,1280.0,1242.0,980.0,602.0,496.0,2015,38.77646617860101,-9.10946877405502,1,0.345293008408184,Phd,3,48,11841.0,0.4101849505953889,0.0680685752892492,0.0486445401570813,0.0342876446246094,0.034794358584579,0.0574275821298876,0.1080989781268473,0.1048897897137066,0.0827632801283675,0.0508403006502829,Big Families
721,838,Msc. Raymond Melody,male,1,1,1,1,4420.0,1490.0,10.0,577.0,595.0,296.0,1367.0,975.0,421.0,1152.0,740.0,117.0,2015,38.72369641358968,-9.188942364542218,1,0.1558120118321478,Msc,2,75,12033.0,0.3673231945483254,0.1238261447685531,0.0479514667996343,0.0494473531122745,0.0245990193634172,0.1136042549655115,0.0810271752680129,0.0349871187567522,0.0957367240089753,0.0614975484085431,Big Families
728,845,Bsc. Edward Roos,male,3,3,1,1,4604.0,2441.0,22.0,468.0,663.0,403.0,1191.0,1471.4238457539814,1073.0,1441.0,794.0,922.0,2008,38.74210496721373,-9.189096703050408,1,0.3954151212633503,Bsc,6,60,14549.42384575398,0.3164386472488121,0.1677729665365661,0.0321662221790712,0.0455688147536842,0.0276986913208669,0.081858911571098,0.1011327913292864,0.0737486247823578,0.0990417225641916,0.0545726077140653,Big Families
732,850,Phd. Patricia Tawwater,female,2,2,1,1,6270.0,1626.0,18.0,435.0,503.0,283.0,1153.0,784.0,1280.0,1206.0,1223.0,785.0,2016,38.70901215107103,-9.180274194049325,1,0.1917274756659789,Phd,4,43,14763.0,0.4247104247104247,0.1101402154033732,0.0294655557813452,0.034071665650613,0.0191695454853349,0.0781006570480254,0.0531057373162636,0.0867032445979814,0.0816907132696606,0.0828422407369775,Big Families
734,852,Phd. Tom Boger,male,3,3,1,1,3458.0,3291.0,23.0,591.0,489.0,135.0,1200.0,1198.0,1204.0,1128.0,1478.0,907.0,2007,38.73924090281604,-9.21476707684662,1,0.2849994643543742,Phd,6,62,14172.0,0.2440022579734688,0.2322184589331075,0.0417019475021168,0.0345046570702794,0.0095258255715495,0.0846740050804403,0.0845328817386395,0.0849562517640417,0.0795935647756138,0.1042901495907423,Big Families
737,855,Phd. Terry Payne,male,2,3,1,2,5693.0,2208.0,23.0,523.0,494.0,174.0,1573.0,1025.0,1124.0,1127.0,867.0,675.0,2008,38.76257640684751,-9.12490481731355,1,0.2558948216158594,Phd,5,81,14808.0,0.3844543490005402,0.1491085899513776,0.0353187466234467,0.0333603457590491,0.0117504051863857,0.1062263641274986,0.0692193408968125,0.0759049162614802,0.076107509454349,0.0585494327390599,Big Families
751,875,Phd. Ocie Butler,female,0,3,0,2,6040.0,2755.0,13.0,474.0,491.0,343.0,1071.0,459.0,909.0,1324.0,1390.0,260.0,2013,38.70930926654126,-9.170625387178225,1,0.2092770679189036,Phd,3,76,15256.0,0.3959098059779758,0.1805846879916098,0.031069743051914,0.032184058730991,0.0224829575249082,0.0702018877818563,0.0300865233350812,0.0595831148400629,0.0867855270057682,0.0911116937598321,Big Families
753,877,Bsc. Ray Ellis,male,1,2,1,1,5950.0,1569.0,14.0,370.0,597.0,237.0,1702.0,1789.0,459.0,325.0,810.0,167.0,2009,38.70287243652263,-9.20888114005582,1,0.1646216638332034,Bsc,3,48,13808.0,0.4309096176129779,0.1136297798377752,0.0267960602549246,0.0432358053302433,0.0171639629200463,0.1232618771726535,0.1295625724217844,0.0332415990730011,0.02353707995365,0.0586616454229432,Big Families
756,880,Bsc. Melvin Winebrenner,male,1,3,1,2,3960.0,2734.0,13.52057966862436,630.0,618.0,300.0,429.0,1016.0,2085.0,1085.0,1370.0,709.0,2012,38.74650943750295,-9.158084330819724,1,0.2109770049380263,Bsc,4,30,14227.0,0.2783439938145779,0.1921698179517818,0.0442819990159555,0.0434385323680326,0.021086666198074,0.0301539326632459,0.0714135095241442,0.1465523300766149,0.0762634427497012,0.0962957756378716,Big Families
757,881,Bsc. Dorothy Smith,female,5,2,1,1,4114.0,2226.0,16.0,421.0,480.0,242.0,821.0,1243.0,840.0,1552.0,344.0,970.0,2010,38.72962092638373,-9.143411539700017,1,0.1570479888779929,Bsc,7,58,12283.0,0.334934462264919,0.1812260848326956,0.0342750142473337,0.0390784010420907,0.019702027192054,0.0668403484490759,0.101196776031914,0.0683872018236587,0.1263534967027599,0.0280061874134983,Big Families
765,889,Bsc. David Davison,male,4,2,2,1,4452.0,575.0,18.0,550.0,515.0,342.0,1061.0,960.0,493.0,828.0,1069.0,145.0,2012,38.72919145248585,-9.15038716828554,1,0.0886007117461093,Bsc,6,31,10845.0,0.4105117565698478,0.0530198248040571,0.0507146150299677,0.0474873213462425,0.0315352697095435,0.0978331028123559,0.0885200553250345,0.0454587367450438,0.0763485477178423,0.0985707699400645,Big Families
766,892,Bsc. Robin Smith,male,3,3,1,1,4725.0,1354.0,14.0,615.0,503.0,129.0,985.0,1836.0,1300.0,856.0,1544.0,454.0,2013,38.74599215078668,-9.188738717272544,1,0.1366207337407223,Bsc,6,56,13847.0,0.3412291471076767,0.0977829132664115,0.0444139524806817,0.0363255578825738,0.0093160973496064,0.0711345417780024,0.1325918971618401,0.0938831515851809,0.061818444428396,0.1115042969596302,Big Families
770,897,Bsc. Tiffanie Taylor,female,3,2,1,1,6654.0,2334.0,16.0,521.0,562.0,253.0,1199.0,1160.0,1098.0,990.0,845.0,582.0,2014,38.74951784945573,-9.182133271943748,1,0.2677089754634532,Bsc,5,73,15616.0,0.4261014344262295,0.1494620901639344,0.0333632172131147,0.0359887295081967,0.0162013319672131,0.076780225409836,0.0742827868852459,0.0703125,0.0633965163934426,0.0541111680327868,Big Families
785,912,Bsc. Tiffany Simmons,female,2,3,1,1,5580.0,1748.0,23.0,408.0,459.0,339.0,1443.0,1128.0,1285.0,929.0,788.0,397.0,2008,38.74111696596485,-9.199562834091145,1,0.0547479362119376,Bsc,5,84,14107.0,0.3955483093499681,0.1239101155454738,0.0289218118664492,0.0325370383497554,0.0240306230949174,0.1022896434394272,0.0799603033954774,0.0910895300205571,0.0658538314312043,0.0558587935067696,Big Families
787,914,Msc. Maria Meyer,female,2,3,2,1,2448.0,1818.0,15.0,533.0,441.0,290.0,1509.0,964.0,762.0,1154.0,779.0,158.0,2010,38.74905532018243,-9.15957537572263,1,0.2180007395664069,Msc,5,31,10698.0,0.2288278182837913,0.1699383062254627,0.0498223967096653,0.04122265844083,0.0271078706300243,0.141054402692092,0.0901103009908394,0.071228266965788,0.1078706300243036,0.0728173490372032,Big Families
790,918,Bsc. Joan Rogers,female,5,2,1,1,3832.0,1481.0,23.0,629.0,608.0,375.0,1022.0,1524.0,916.0,711.0,1245.0,1170.0,2012,38.73560869011064,-9.172939506373115,1,0.2442794042467089,Bsc,7,62,12343.0,0.3104593696832212,0.1199870371870696,0.0509600583326581,0.0492586891355424,0.0303815928056388,0.0827999675929676,0.1234707931621161,0.0742121040265737,0.0576034999594912,0.1008668881147209,Big Families
796,924,Msc. Thomas Dawson,male,1,0,1,1,3273.0,1252.0,19.0,544.0,390.0,336.0,1230.0,772.0,1388.0,984.0,1208.0,619.0,2014,38.76067908499587,-9.139320765556016,1,0.1838966554921743,Msc,1,82,11377.0,0.2876856816383932,0.1100465852157862,0.0478157686560604,0.0342796870879845,0.029533268875802,0.1081128592774896,0.0678562011074975,0.1220005273798013,0.0864902874219917,0.1061791333391931,Big Families
797,926,Msc. Theresa Cramer,female,7,2,1,1,4213.0,943.0,23.0,543.0,408.0,274.0,1622.0,641.0,822.0,1087.0,1189.0,631.0,2017,38.76220687096036,-9.10975139699935,1,0.2079048631189352,Msc,9,29,11742.0,0.35879747913473,0.0803099982967126,0.046244251405212,0.0347470618293306,0.0233350366206779,0.1381366036450349,0.0545903593936297,0.0700051098620337,0.0925736671776528,0.1012604326349855,Big Families
799,928,Bsc. Jim Alverez,male,5,3,1,2,4113.0,1503.0,17.0,496.0,615.0,409.0,1146.0,749.0,1268.0,705.0,1107.0,625.0,2012,38.75099101768673,-9.15138564882626,1,0.3008331917051543,Bsc,8,78,12111.0,0.3396086202625712,0.1241020559821649,0.040954504169763,0.0507802823879118,0.0337709520270828,0.0946247213277186,0.0618446040789365,0.1046982082404425,0.0582115432251672,0.0914045082982412,Big Families
808,938,Msc. Charles Romo,male,0,0,1,1,5106.0,335.0,9.0,418.0,385.0,449.0,1516.0,1397.0,1280.0,727.0,948.0,294.0,2014,38.76044683386877,-9.203531015644916,1,0.1281964380051033,Msc,0,73,12561.0,0.4064962980654406,0.0266698511265026,0.0332776052862033,0.030650425921503,0.0357455616591035,0.120691027784412,0.1112172597723111,0.1019027147520102,0.0578775575193057,0.0754716981132075,Big Families
813,944,Phd. Leticia Net,female,4,2,1,1,6426.0,632.0,13.52057966862436,354.0,473.0,292.0,919.0,1166.0,1657.0,730.0,1023.0,931.0,2006,38.76169072392095,-9.065043507297746,1,0.281653592384378,Phd,6,75,13672.0,0.4700117027501463,0.0462258630778232,0.0258923346986541,0.0345962551199531,0.0213575190169689,0.0672176711527208,0.0852837916910474,0.1211966062024575,0.0533937975424224,0.0748244587478057,Big Families
830,963,Bsc. John Vandamme,male,4,1,0,1,4558.0,621.0,18.0,535.0,390.0,305.0,903.0,1287.0,1514.0,808.0,1075.0,552.0,2016,38.7854063694856,-9.17231519861862,1,0.234409984243841,Bsc,5,48,11996.0,0.3799599866622207,0.0517672557519173,0.0445981993997999,0.0325108369456485,0.0254251417139046,0.0752750916972324,0.1072857619206402,0.1262087362454151,0.0673557852617539,0.0896132044014671,Big Families
835,968,Msc. Barbra Sundberg,female,5,3,1,1,4501.0,899.0,15.0,591.0,674.0,222.0,851.0,1302.0,1167.0,925.0,1039.0,765.0,2007,38.729253221564846,-9.20028715694864,1,0.3013345509746698,Msc,8,40,12171.0,0.3698134910853669,0.0738641031961219,0.0485580478185851,0.0553775367677265,0.0182400788760167,0.0699203023580642,0.1069755977323145,0.0958836578752772,0.0760003286500698,0.0853668556404568,Big Families
848,982,Msc. Mary Kraemer,female,1,3,1,1,2466.0,2052.0,20.0,473.0,614.0,357.0,988.0,308.0,431.0,793.0,872.0,873.0,2008,38.77185039413679,-9.129213913366454,1,0.3600529126050584,Msc,4,47,9354.0,0.2636305323925593,0.2193713919178961,0.0505666025229848,0.0656403677571092,0.0381654906991661,0.1056232627752833,0.0329270900149668,0.0460765447936711,0.0847765661748984,0.0932221509514646,Big Families
852,990,Phd. Peter Siple,male,4,3,1,1,3997.0,1853.0,9.0,434.0,554.0,345.0,784.0,878.0,669.0,1196.0,1349.0,736.0,2009,38.72431405158113,-9.171064999623209,1,0.1175991415218869,Phd,7,62,12059.0,0.3314536860436188,0.153661165934157,0.0359897172236503,0.0459407911103739,0.0286093374243303,0.0650136827265942,0.0728086906045277,0.0554772369184841,0.0991790364043453,0.1118666556099179,Big Families
861,999,Msc. Alice Privateer,female,4,2,1,1,4968.0,3033.0,13.52057966862436,470.0,739.0,364.0,833.0,6.0,1576.0,962.0,456.0,207.0,2012,38.7807430639865,-9.0986882843636,1,0.1724160544910218,Msc,6,82,13407.0,0.3705526963526516,0.2262251062877601,0.0350563138658909,0.0551204594614753,0.0271499962706049,0.0621317222346535,0.0004475274110539,0.1175505333034981,0.0717535615723129,0.0340120832400984,Big Families
866,1004,Msc. Reginald Urbina,male,3,4,1,1,4901.0,1697.0,21.0,565.0,682.0,256.0,527.0,860.0,1049.0,959.0,1424.0,539.0,2008,38.731490926337976,-9.185207147051177,1,0.0152716448084893,Msc,7,71,12920.0,0.3793343653250774,0.1313467492260062,0.0437306501547987,0.0527863777089783,0.0198142414860681,0.0407894736842105,0.06656346749226,0.0811919504643962,0.0742260061919504,0.1102167182662538,Big Families
868,1006,Bsc. Alex Chandler,male,2,0,1,1,5018.0,1468.0,21.0,464.0,558.0,232.0,976.0,915.0,889.0,827.0,844.0,95.0,2011,38.77251921838967,-9.184572350528326,1,0.1937557964527339,Bsc,2,76,12191.0,0.4116151259125584,0.1204167008448855,0.0380608645722254,0.0457714707571159,0.0190304322861127,0.0800590599622672,0.0750553687146255,0.0729226478549749,0.0678369288819621,0.069231400213272,Big Families
872,1010,Bsc. Gay Malone,female,3,2,2,1,3338.0,708.0,16.0,524.0,515.0,122.0,214.0,1823.0,1367.0,1104.0,1080.0,615.0,2014,38.73059312078375,-9.1612457228733,1,0.2637428681558689,Bsc,5,52,10795.0,0.3092172301991663,0.0655859194071329,0.0485409911996294,0.047707271885132,0.0113015284854099,0.0198239925891616,0.1688744789254284,0.1266327003242242,0.1022695692450208,0.1000463177396943,Big Families
884,1022,Bsc. Tina Levine,female,1,3,1,1,3353.0,178.0,24.0,485.0,523.0,312.0,561.0,945.0,755.0,1017.0,1338.0,368.0,2010,38.7688565329361,-9.16424013759535,1,0.1220350187957674,Bsc,4,74,9467.0,0.3541776698003591,0.0188021548537023,0.0512305904721664,0.0552445336431815,0.0329565860357029,0.0592584768141966,0.0998204288581388,0.0797507130030632,0.1074257948663779,0.1413330516531108,Big Families
885,1023,Phd. Jessie Fray,male,2,1,1,1,6249.0,2440.0,13.52057966862436,501.0,468.0,331.0,1078.0,168.0,597.0,598.0,661.0,579.0,2007,38.78895765866029,-9.055978602134063,1,0.3417173907568333,Phd,3,82,13091.0,0.4773508517301963,0.1863875945305935,0.038270567565503,0.0357497517378351,0.0252845466350928,0.0823466503704835,0.0128332442135818,0.045603849973264,0.0456802383316782,0.0504927049117714,Big Families
888,1026,Msc. Sylvester Grant,male,3,1,1,1,3800.0,1257.0,13.52057966862436,455.0,645.0,322.0,695.0,1228.0,1285.0,925.0,1374.0,501.0,2011,38.729214505388136,-9.174696219540674,1,0.4199651613013981,Msc,4,75,11986.0,0.3170365426330719,0.1048723510762556,0.0379609544468546,0.0538127815785082,0.0268646754546971,0.0579843150342065,0.1024528616719506,0.1072084098114466,0.0771733689304188,0.1146337393625896,Big Families
889,1027,Bsc. John Melancon,male,2,2,2,1,5697.0,1653.0,13.52057966862436,607.0,558.0,411.0,871.0,939.0,290.0,955.0,1045.0,478.0,2005,38.76583225897837,-9.181416075470874,1,0.32249887053733,Bsc,4,59,13026.0,0.4373560571165361,0.1269000460617227,0.0465991094733609,0.0428374021188392,0.031552280055274,0.0668662674650698,0.0720865960386918,0.0222631659757408,0.0733149086442499,0.0802241670505143,Big Families
894,1032,Bsc. Lucille Barker,female,2,3,2,1,6832.0,1678.0,18.0,563.0,532.0,305.0,1355.0,880.0,701.0,1222.0,1218.0,519.0,2007,38.79165447669154,-9.130806067007024,1,0.1178618675327792,Bsc,5,59,15286.0,0.4469449169174408,0.1097736490906712,0.0368310872693968,0.0348030877927515,0.0199528980766714,0.0886432029307863,0.0575690174015438,0.0458589559073662,0.0799424309825984,0.0796807536307732,Big Families
898,1037,Bsc. John Holmes,male,4,2,1,1,5932.0,1808.0,17.0,399.0,525.0,231.0,1219.0,1393.0,389.0,1237.0,1486.0,437.0,2014,38.759234253429845,-9.18385765335668,1,0.2034051634646282,Bsc,6,37,14619.0,0.4057733087078459,0.1236746699500649,0.0272932485122101,0.0359121690950133,0.0158013544018058,0.0833846364320405,0.095286955332102,0.0266092071961146,0.0846159108010123,0.1016485395717901,Big Families
899,1039,Phd. Richard Bromley,male,4,3,1,1,6019.0,417.0,13.52057966862436,426.0,487.0,256.0,679.0,1556.0,733.0,596.0,1166.0,412.0,2024,38.78121607516256,-9.145552195069987,1,0.0633728465859999,Phd,7,22,12335.0,0.4879610863396838,0.0338062423996757,0.0345358735306039,0.0394811511957843,0.0207539521686258,0.0550466153222537,0.126145115524929,0.0594244021078232,0.048317794892582,0.0945277665180381,Big Families
901,1041,Bsc. Clarice Foushee,female,4,1,1,1,4975.0,3686.0,20.0,574.0,372.0,406.0,1478.0,1217.0,1498.0,819.0,702.0,644.0,2006,38.71532425514853,-9.156277081235704,1,0.3449632906385478,Bsc,5,52,15727.0,0.3163349653462198,0.2343740064856616,0.0364977427354231,0.0236535893686017,0.0258154765689578,0.0939785082978317,0.077382844789216,0.0952502066509823,0.0520760475615184,0.0446366121955872,Big Families
910,1051,Bsc. Clint Macnaught,male,1,2,1,1,4946.0,2889.0,22.0,654.0,383.0,190.0,832.0,552.0,1405.0,1125.0,862.0,439.0,2015,38.72040680360006,-9.113830241157585,1,0.2250231494712927,Bsc,3,66,13838.0,0.3574215927157104,0.2087729440670617,0.0472611649082237,0.0276774100303512,0.0137303078479549,0.060124295418413,0.0398901575372163,0.1015320132967191,0.0812978754155224,0.0622922387628269,Big Families
915,1057,Bsc. Teresa Ellinger,female,1,2,1,2,5811.0,2626.0,22.0,491.0,636.0,447.0,1403.0,820.0,1166.0,804.0,1213.0,972.0,2005,38.75780363064931,-9.061363672295595,1,0.1633416083157605,Bsc,3,55,15417.0,0.3769215800739443,0.1703314522929234,0.0318479600441071,0.0412531620937925,0.0289939676979957,0.0910034377635078,0.0531880391775312,0.075630797171953,0.0521502237789453,0.0786793799052993,Big Families
921,1064,Msc. Julie Sims,female,3,2,1,1,4705.0,1942.0,18.0,522.0,542.0,288.0,968.0,1154.0,317.0,941.0,1374.0,687.0,2011,38.80012353492487,-9.06540003603662,1,0.2257902327998837,Msc,5,63,12753.0,0.3689328001254607,0.1522778953971614,0.0409315455187014,0.0424998039676938,0.0225829216654904,0.0759037089312318,0.0904885125068611,0.0248568964165294,0.0737865600250921,0.1077393554457774,Big Families
937,1081,Phd. Viola White,female,9,2,1,1,6435.0,1388.0,9.0,558.0,474.0,362.0,928.0,1219.0,1137.0,249.0,1105.0,414.0,2012,38.71228161114125,-9.170759503364966,1,0.1432705097628752,Phd,11,73,13855.0,0.4644532659689642,0.1001804402742692,0.0402742692168892,0.0342114760014435,0.0261277517141826,0.0669794298087333,0.0879826777336701,0.0820642367376398,0.017971851317214,0.0797546012269938,Big Families
938,1082,Phd. Dustin Raap,male,0,2,1,1,4640.0,3312.0,19.0,271.0,343.0,352.0,1455.0,1097.0,807.0,905.0,1791.0,172.0,2008,38.79685475628887,-9.09903203854796,1,0.2433462786360402,Phd,2,74,14973.0,0.3098911373806184,0.2211981566820276,0.0180992453082214,0.0229079008882655,0.023508982835771,0.0971749148467241,0.073265210712616,0.0538970146263273,0.0604421291658318,0.1196153075535964,Big Families
939,1083,Msc. Allen Aslam,male,0,1,1,1,5653.0,4120.0,22.0,627.0,498.0,423.0,1814.0,633.0,429.0,1125.0,1458.0,462.0,2006,38.79191214801765,-9.162720111376988,1,0.1077766198073287,Msc,1,65,16780.0,0.3368891537544696,0.2455303933253873,0.0373659117997616,0.0296781883194278,0.0252085816448152,0.1081048867699642,0.0377234803337306,0.0255661501787842,0.0670441001191895,0.0868891537544696,Big Families
940,1084,Msc. Jessica Patrick,female,1,2,1,1,4409.0,2992.0,22.0,478.0,493.0,329.0,1423.0,933.0,1443.0,1047.0,1206.0,442.0,2008,38.74502008449221,-9.185400969732507,1,0.0335881834283348,Msc,3,45,14753.0,0.2988544702772318,0.202806208906663,0.0324001897919067,0.0334169321493933,0.022300549040873,0.0964549583135633,0.0632413746356673,0.0978106147902121,0.0709686165525655,0.0817460855419236,Big Families
941,1085,Msc. Carlos Long,male,4,2,2,1,7029.0,3533.0,24.0,331.0,726.0,231.0,1056.0,617.0,1172.0,567.0,1068.0,381.0,2018,38.7239115542012,-9.140793023245555,1,0.3872767796055387,Msc,6,63,16330.0,0.4304347826086956,0.2163502755664421,0.020269442743417,0.0444580526638089,0.0141457440293937,0.0646662584200857,0.0377832210655235,0.0717697489283527,0.0347213717085119,0.0654011022657685,Big Families
945,1090,Msc. Matilde Wills,female,5,3,1,1,4213.0,2210.0,17.0,533.0,517.0,289.0,825.0,1760.0,772.0,904.0,1091.0,535.0,2009,38.7262660887767,-9.135666916794568,1,0.1993076341754229,Msc,8,65,13114.0,0.3212597224340399,0.1685221900259265,0.0406435870062528,0.039423516852219,0.0220375171572365,0.0629098673173707,0.1342077169437242,0.0588683849321335,0.0689339637029129,0.0831935336281836,Big Families
947,1092,Msc. Micheal Miller,male,2,3,1,1,5954.0,2231.0,24.0,330.0,387.0,310.0,1653.0,609.0,969.0,1219.0,756.0,561.0,2009,38.767444363734576,-9.115194158843696,1,0.2320420510655398,Msc,5,42,14418.0,0.4129560271882369,0.1547371341378832,0.0228880565959217,0.0268414481897627,0.0215009016507143,0.1146483562213899,0.0422388680815647,0.0672076570952975,0.0845470939103898,0.0524344569288389,Big Families
955,1100,Phd. Magda Carey,female,6,3,1,1,5919.0,4104.0,13.52057966862436,471.0,576.0,521.0,1110.0,1520.0,701.0,1189.0,890.0,743.0,2008,38.72420164143122,-9.149486864084968,1,0.2518793697766757,Phd,9,71,17001.0,0.3481559908240692,0.2413975648491265,0.0277042526910181,0.0338803599788247,0.0306452561614022,0.0652902770425269,0.0894065054996764,0.041232868654785,0.0699370625257337,0.0523498617728368,Big Families
960,1105,Phd. Nickolas Pineda,male,5,1,1,2,4545.0,1252.0,11.0,428.0,624.0,361.0,703.0,1104.0,1535.0,781.0,1094.0,864.0,2007,38.77578277875179,-9.134896379911943,1,0.221688037326734,Phd,6,52,12427.0,0.3657358976422306,0.1007483704836243,0.0344411362356159,0.0502132453528607,0.0290496499557415,0.056570370966444,0.0888388187012151,0.1235213647702583,0.0628470266355516,0.0880341192564577,Big Families
967,1115,Msc. Mary Ewing,female,4,1,1,2,3728.0,877.0,20.0,431.0,572.0,336.0,518.0,1069.0,651.0,771.0,683.0,419.0,2011,38.71094207647986,-9.134427061183708,1,0.1247353411794494,Msc,5,47,9636.0,0.3868825238688252,0.0910128684101286,0.044728102947281,0.0593607305936073,0.0348692403486924,0.0537567455375674,0.1109381486093814,0.0675591531755915,0.0800124533001245,0.0708800332088003,Big Families
969,1117,Bsc. Richard Sturgeon,male,1,3,1,1,5746.0,483.0,17.0,420.0,464.0,191.0,1639.0,1471.4238457539814,911.0,1151.0,982.0,482.0,2009,38.745279007509154,-9.136902849886146,1,0.2658814777842119,Bsc,4,81,13458.42384575398,0.426944497056601,0.0358883035291225,0.0312072204601065,0.034476548317832,0.0141918550187627,0.121782462700273,0.1093310674873865,0.0676899472360883,0.0855226446418635,0.0729654535519634,Big Families
972,1120,Msc. Greg Moseley,male,2,2,0,1,4856.0,4143.0,12.0,584.0,502.0,323.0,1519.0,1024.0,608.0,882.0,816.0,269.0,2011,38.72287791610648,-9.230736471721306,1,0.0294048117452308,Msc,4,78,15257.0,0.3182801337091171,0.2715474863996854,0.0382775119617224,0.0329029298027135,0.0211706102117061,0.099560857311398,0.0671167333027462,0.0398505603985056,0.0578095300517795,0.0534836468506259,Big Families
973,1121,Msc. Juanita Wright,female,4,1,1,2,4770.0,1227.0,11.0,498.0,474.0,335.0,947.0,1241.0,1214.0,466.0,1371.0,152.0,2010,38.72927297692398,-9.140046687330956,1,0.3046771924863338,Msc,5,36,12543.0,0.3802917962209997,0.0978234872040181,0.0397034202343936,0.0377900023917723,0.0267081240532567,0.075500279040102,0.0989396476122139,0.0967870525392649,0.0371521964442318,0.1093039942597464,Big Families
978,1127,Bsc. Ramona Heideman,female,4,1,1,2,4807.0,1648.0,18.0,525.0,745.0,373.0,621.0,1533.0,825.0,990.0,500.0,262.0,2010,38.79784710114174,-9.087250124265278,1,0.1630403106433208,Bsc,5,72,12567.0,0.382509747752049,0.1311371051165751,0.041776080210074,0.0592822471552478,0.0296809103206811,0.0494151348770589,0.121986154213416,0.065648126044402,0.0787777512532824,0.0397867430572133,Big Families
979,1129,Bsc. Suzanne Davis,female,6,4,0,1,4854.0,3158.0,16.0,650.0,579.0,202.0,1520.0,1265.0,1269.0,504.0,1101.0,769.0,2011,38.73579935847518,-9.181652361628911,1,0.146094594759219,Bsc,10,55,15102.0,0.3214143822010329,0.2091113759766918,0.0430406568666401,0.0383392928088994,0.0133757118262481,0.1006489206727585,0.0837637399019997,0.0840286054827175,0.033373063170441,0.0729042510925705,Big Families
1001,1154,Bsc. Nicole Patton,female,3,2,1,1,3654.0,172.0,16.0,543.0,575.0,332.0,1255.0,879.0,1359.0,1205.0,1340.0,216.0,2023,38.794648807960975,-9.128997048520333,1,0.2534887539209757,Bsc,5,23,11314.0,0.32296270107831,0.0152024041011136,0.0479936362029344,0.0508219904543044,0.0293441753579635,0.1109245182959165,0.0776913558423192,0.120116669612869,0.1065052147781509,0.118437334276118,Big Families
1005,1160,Phd. Jennifer Long,female,3,2,1,2,5784.0,394.0,20.0,379.0,611.0,293.0,1179.0,518.0,1342.0,1376.0,226.0,447.0,2010,38.74715335539828,-9.19685626100758,1,0.1681294028901335,Phd,5,40,12102.0,0.4779375309866138,0.03255660221451,0.0313171376631961,0.0504875227235167,0.0242108742356635,0.0974219137332672,0.042802842505371,0.1108907618575442,0.1137002148405222,0.018674599239795,Big Families
1006,1162,Phd. Cynthia Towner,female,2,3,1,1,6321.0,2021.0,13.0,718.0,486.0,320.0,919.0,1471.4238457539814,1565.0,774.0,1645.0,827.0,2006,38.731635903147726,-9.171472851265651,1,0.1610290042665029,Phd,5,67,16240.42384575398,0.3892139798834505,0.1244425649967494,0.0442106688113142,0.029925327356962,0.0197039192473824,0.0565871930885763,0.090602551985654,0.0963644800692295,0.0476588546796061,0.1012904598810751,Big Families
1011,1167,Msc. Clare Murdock,female,2,1,1,1,5540.0,1935.0,9.0,373.0,591.0,407.0,734.0,213.0,1119.0,695.0,696.0,669.0,2009,38.77702544390471,-9.14492334910424,1,0.1814387099741163,Msc,3,64,12303.0,0.4502966756075754,0.1572787125091441,0.0303178086645533,0.0480370641306998,0.0330813622693651,0.0596602454685849,0.0173128505242623,0.09095342599366,0.0564902869218889,0.0565715679102657,Big Families
1013,1169,Bsc. Edgar Coots,male,5,3,2,1,4617.0,2906.0,9.0,597.0,394.0,247.0,685.0,739.0,1356.0,1232.0,923.0,254.0,2005,38.71206182615759,-9.15715601848792,1,0.1365867868097313,Bsc,8,47,13696.0,0.3371057242990654,0.212178738317757,0.0435893691588785,0.0287675233644859,0.0180344626168224,0.0500146028037383,0.0539573598130841,0.0990070093457943,0.0899532710280373,0.0673919392523364,Big Families
1016,1172,Phd. Roy Archer,male,6,2,1,1,6247.0,1314.0,16.0,312.0,448.0,201.0,1657.0,1471.4238457539814,434.0,785.0,1000.0,753.0,2010,38.7569466798583,-9.20326547660472,1,0.1227812106262636,Phd,8,40,13869.42384575398,0.4504152493625372,0.0947407775992274,0.0224955271011864,0.0323012696837548,0.0144923107286489,0.1194714372008522,0.1060912019214443,0.0312918550061375,0.0565993229949722,0.0721010484012385,Big Families
1018,1174,Phd. Phoebe Collins,female,2,3,1,1,5693.0,713.0,9.0,522.0,508.0,156.0,815.0,1300.0,993.0,742.0,695.0,531.0,2010,38.71344798702742,-9.192642177375856,1,0.1771360655819762,Phd,5,58,12137.0,0.4690615473345967,0.0587459833566779,0.0430089808025047,0.0418554832330889,0.0128532586306336,0.0671500370767076,0.1071104885886133,0.0818159347449946,0.0611353711790393,0.0572629150531432,Big Families
1019,1175,Msc. Tillie Collins,female,6,4,1,1,4201.0,2390.0,21.0,406.0,474.0,404.0,14.0,982.0,1197.0,657.0,1261.0,612.0,2012,38.74649761376607,-9.1943228848568,1,0.3711459802756574,Msc,10,80,11986.0,0.3504922409477724,0.1993992991823794,0.0338728516602703,0.03954613716002,0.0337059903220423,0.0011680293675955,0.0819289170699149,0.0998665109294176,0.0548139496078758,0.1052060737527115,Big Families
1024,1180,Phd. Julia Everett,female,5,2,1,2,6455.0,1329.0,13.52057966862436,295.0,520.0,240.0,1421.0,597.0,588.0,1370.0,600.0,698.0,2008,38.78894084115716,-9.099201730613112,1,0.1702251375549372,Phd,7,78,13415.0,0.4811777860603802,0.0990682072307118,0.0219903093551994,0.0387625792023853,0.0178904211703317,0.1059262020126723,0.0445024226612001,0.0438315318673127,0.1021244875139768,0.0447260529258293,Big Families
1025,1181,Phd. William Sander,male,4,1,1,1,3334.0,1738.0,15.0,347.0,438.0,250.0,553.0,1214.0,1330.0,770.0,794.0,685.0,2002,38.77625214524743,-9.162980372271177,1,0.196613410125771,Phd,5,57,10768.0,0.3096210995542348,0.1614041604754829,0.0322251114413075,0.0406760772659732,0.0232169390787518,0.0513558692421991,0.112741456166419,0.1235141158989598,0.0715081723625557,0.0737369985141159,Big Families
1030,1186,Msc. Robert Jacobs,male,1,1,1,1,5803.0,1625.0,14.0,433.0,418.0,257.0,989.0,723.0,560.0,767.0,1615.0,669.0,2015,38.788393617900674,-9.112649035599494,1,0.0945009927521001,Msc,2,50,13190.0,0.4399545109931767,0.123199393479909,0.0328278999241849,0.0316906747536012,0.0194844579226686,0.0749810462471569,0.0548142532221379,0.0424564063684609,0.058150113722517,0.1224412433661865,Big Families
1032,1188,Bsc. Corey Wall,male,0,3,1,1,4461.0,2029.0,23.0,553.0,596.0,134.0,1329.0,455.0,1583.0,401.0,705.0,454.0,2011,38.76054648042231,-9.16509273555154,1,0.202126451430935,Bsc,3,44,12246.0,0.3642822146006859,0.1656867548587293,0.0451576024824432,0.0486689531275518,0.0109423485219663,0.1085252327290543,0.0371549893842887,0.1292666993303936,0.0327453862485709,0.0575698187163155,Big Families
1039,1196,Bsc. Betty Vierra,female,2,1,1,1,4630.0,1227.0,20.0,474.0,478.0,226.0,1416.0,357.0,529.0,1221.0,913.0,733.0,2007,38.77646914219273,-9.201935488432149,1,0.1176098135712002,Bsc,3,40,11471.0,0.4036265364833057,0.1069653909859646,0.04132159358382,0.0416702990149071,0.0197018568564205,0.1234417226048295,0.0311219597245227,0.0461162932612675,0.1064423328393339,0.0795920146456281,Big Families
1041,1198,Bsc. Monica Krokos,female,4,3,0,1,5432.0,3731.0,19.0,334.0,462.0,268.0,1020.0,1430.0,1337.0,517.0,968.0,357.0,2012,38.76148071471057,-9.061121539480297,1,0.2534887539209757,Bsc,7,69,15499.0,0.3504742241434931,0.2407252080779405,0.0215497774049938,0.0298083747338537,0.0172914381573004,0.0658106974643525,0.0922640170333569,0.0862636299116072,0.0333569907735983,0.0624556422995031,Big Families
1050,1209,Bsc. Janet Pierce,female,3,3,1,1,5135.0,2779.0,23.0,537.0,540.0,303.0,1188.0,1613.0,752.0,1220.0,1203.0,88.0,2014,38.748870361251655,-9.231496316530569,1,0.3156758975021969,Bsc,6,70,15270.0,0.3362802881466928,0.1819908316961362,0.0351669941060903,0.0353634577603143,0.0198428290766208,0.0777996070726915,0.1056319580877537,0.0492468893254747,0.0798952193844138,0.0787819253438114,Big Families
1053,1212,Msc. James Brereton,male,4,0,1,1,4248.0,2272.0,18.0,600.0,385.0,135.0,1240.0,1192.0,559.0,656.0,763.0,331.0,2004,38.73410943007397,-9.128913996905112,1,0.2441616939577021,Msc,4,66,12050.0,0.3525311203319502,0.1885477178423236,0.0497925311203319,0.0319502074688796,0.0112033195020746,0.1029045643153526,0.0989211618257261,0.0463900414937759,0.0544398340248962,0.0633195020746888,Big Families
1055,1215,Phd. Charlie Bakley,male,3,2,1,1,5949.0,2589.0,18.0,418.0,454.0,265.0,1194.0,414.0,1233.0,988.0,1818.0,378.0,2014,38.73769592784701,-9.147912535492663,1,0.2152695525298045,Phd,5,58,15322.0,0.3882652395248662,0.1689727189661924,0.0272810338075969,0.0296305965278684,0.017295392246443,0.0779271635556715,0.0270199712831223,0.080472523169299,0.064482443545229,0.118652917373711,Big Families
1057,1217,Bsc. William Winograd,male,1,1,1,1,5365.0,900.0,22.0,654.0,322.0,125.0,1297.0,1434.0,459.0,1396.0,803.0,313.0,2010,38.71367839375802,-9.18647834855123,1,0.196895785158095,Bsc,2,81,12755.0,0.4206193649549196,0.0705605644845158,0.0512740101920815,0.0252450019600156,0.0098000784006272,0.1016856134849078,0.1124264994119953,0.035985887887103,0.1094472755782046,0.0629557036456291,Big Families
1060,1220,Bsc. Marvin Wright,male,2,1,2,1,5218.0,772.0,24.0,653.0,495.0,484.0,844.0,686.0,1288.0,955.0,1167.0,198.0,2009,38.78111136710186,-9.202399951748491,1,0.1746418462504651,Bsc,3,74,12562.0,0.415379716605636,0.0614551822958127,0.0519821684445152,0.0394045534150612,0.0385288966725043,0.0671867537016398,0.0546091386721859,0.1025314440375736,0.0760229262856233,0.0928992198694475,Big Families
1061,1223,Bsc. Joseph Lee,male,2,3,0,1,4090.0,580.0,17.0,392.0,452.0,419.0,1384.0,1021.0,1244.0,1039.0,1213.0,1281.0,2009,38.75565229239725,-9.161090420760804,1,0.2714184731722761,Bsc,5,65,11834.0,0.3456143315869528,0.0490113233057292,0.033124894372148,0.0381950312658441,0.0354064559743113,0.1169511576812574,0.0862768294743958,0.105120838262633,0.0877978705425046,0.1025012675342234,Big Families
1063,1225,Msc. Marina Massimino,female,2,1,1,1,4611.0,2437.0,17.0,351.0,525.0,338.0,1026.0,371.0,476.0,1283.0,761.0,769.0,2009,38.78483865702482,-9.145508438852698,1,0.2114832899405906,Msc,3,66,12179.0,0.3786025125215534,0.2000985302569997,0.0288201001724279,0.0431069874373922,0.0277526890549306,0.0842433697347894,0.0304622711224238,0.0390836686099022,0.1053452664422366,0.0624846046473437,Big Families
1064,1226,Msc. Lewis Wilder,male,2,1,1,1,6091.0,380.0,20.0,434.0,340.0,260.0,809.0,695.0,1448.0,745.0,948.0,919.0,2020,38.76033725942133,-9.137961579987518,1,0.309425281006256,Msc,3,27,12150.0,0.5013168724279835,0.031275720164609,0.0357201646090535,0.0279835390946502,0.0213991769547325,0.0665843621399177,0.0572016460905349,0.1191769547325102,0.0613168724279835,0.0780246913580246,Big Families
1072,1237,Msc. Linda Morris,female,2,1,1,1,5708.0,853.0,13.0,475.0,457.0,249.0,585.0,1873.0,932.0,1107.0,1028.0,749.0,2010,38.7203761746279,-9.17002134504426,1,0.2747959195387005,Msc,3,77,13267.0,0.4302404462199442,0.0642948669631416,0.0358031205246099,0.0344463706942036,0.0187683726539534,0.0440943694882038,0.1411773573528303,0.0702494912188136,0.0834401145699856,0.0774854903143137,Big Families
1075,1240,Phd. Nathan Roekle,male,7,1,1,1,4113.0,2591.0,17.0,560.0,437.0,291.0,1555.0,475.0,906.0,613.0,1066.0,930.0,2018,38.709460040697,-9.195295551075986,1,0.205622547845499,Phd,8,28,12607.0,0.3262473229158404,0.2055207424446735,0.0444197667962243,0.0346632823034821,0.0230824145316094,0.1233441738716586,0.0376774807646545,0.07186483699532,0.0486237804394384,0.0845561989370984,Big Families
1091,1258,Msc. Mike Goff,male,2,0,1,1,6187.0,2275.0,21.0,655.0,525.0,278.0,1309.0,1133.0,1047.0,945.0,596.0,886.0,2010,38.80224067084696,-9.098563465502572,1,0.2041931385431839,Msc,2,54,14950.0,0.4138461538461538,0.1521739130434782,0.0438127090301003,0.0351170568561872,0.0185953177257525,0.0875585284280936,0.0757859531772575,0.0700334448160535,0.0632107023411371,0.0398662207357859,Big Families
1092,1259,Phd. Benjamin Clark,male,0,1,1,1,4960.0,2013.0,24.0,427.0,598.0,137.0,590.0,744.0,213.0,1363.0,641.0,634.0,2010,38.781636868576605,-9.093985884378869,1,0.1288220725879885,Phd,1,42,11686.0,0.4244395002567174,0.1722574020195105,0.0365394489132295,0.0511723429744994,0.011723429744994,0.0504877631353756,0.0636659250385076,0.0182269382166695,0.1166352900907068,0.0548519596097894,Big Families
1095,1263,Phd. Porfirio Stanley,male,2,3,1,1,5033.0,1407.0,14.0,499.0,516.0,325.0,1650.0,1369.0,1715.0,521.0,1085.0,832.0,2012,38.77675414340673,-9.203115043022557,1,0.3756421708641988,Phd,5,64,14120.0,0.3564447592067988,0.0996458923512747,0.0353399433427762,0.0365439093484419,0.0230169971671388,0.1168555240793201,0.0969546742209631,0.1214589235127478,0.0368980169971671,0.0768413597733711,Big Families
1103,1273,Bsc. James Morrison,male,6,3,1,1,4178.0,660.0,19.0,380.0,376.0,235.0,1859.0,1266.0,1011.0,1014.0,801.0,1065.0,2017,38.7335621637669,-9.15309820340958,1,0.4031226999005765,Bsc,9,68,11780.0,0.3546689303904923,0.0560271646859083,0.032258064516129,0.031918505942275,0.0199490662139219,0.1578098471986417,0.1074702886247877,0.0858234295415959,0.0860780984719864,0.0679966044142614,Big Families
1110,1281,Msc. Catherine Santiago,female,5,2,1,1,4164.0,2407.0,23.0,212.0,357.0,290.0,1082.0,1180.0,929.0,899.0,832.0,674.0,2011,38.70985206606385,-9.11465520797201,1,0.1012542515201554,Msc,7,65,12352.0,0.3371113989637305,0.1948672279792746,0.0171632124352331,0.0289022020725388,0.0234779792746114,0.0875971502590673,0.0955310880829015,0.0752104922279792,0.0727817357512953,0.0673575129533678,Big Families
1121,1295,Msc. Ellen Larson,female,3,3,1,1,5916.0,1248.0,20.0,381.0,492.0,332.0,428.0,1073.0,944.0,581.0,1156.0,586.0,2012,38.71991863008558,-9.156531323138612,1,0.3123732988606014,Msc,6,83,12551.0,0.4713568639949008,0.099434308023265,0.030356146920564,0.039200063739941,0.0264520755318301,0.0341008684566966,0.0854911959206437,0.0752131304278543,0.0462911321807027,0.0921042148036013,Big Families
1129,1303,Msc. Kenneth Beggs,male,6,3,1,1,6024.0,1629.0,14.0,579.0,464.0,482.0,1022.0,1064.0,1005.0,1193.0,1158.0,676.0,2009,38.784904479531015,-9.181838508089722,1,0.0528639508148333,Msc,9,62,14620.0,0.4120383036935705,0.111422708618331,0.0396032831737346,0.0317373461012311,0.0329685362517099,0.0699042407660738,0.0727770177838577,0.0687414500683994,0.0816005471956224,0.0792065663474692,Big Families
1134,1308,Msc. Elizabeth Asuncion,female,3,0,1,1,6905.0,1979.0,20.0,509.0,421.0,482.0,316.0,679.0,835.0,1161.0,1265.0,617.0,2007,38.72706174003002,-9.171336631517413,1,0.1599383095920587,Msc,3,63,14552.0,0.4745052226498076,0.135995052226498,0.034978009895547,0.028930731170973,0.0331225948323254,0.0217152281473337,0.0466602528862012,0.0573804288070368,0.0797828477185266,0.0869296316657504,Big Families
1146,1320,Msc. Robert Cacciatori,male,4,3,1,1,4704.0,3010.0,20.0,632.0,674.0,365.0,1573.0,1485.0,1556.0,136.0,991.0,160.0,2006,38.76302412788272,-9.183963567486533,1,0.046665708518136,Msc,7,36,15126.0,0.3109877032923443,0.1989951077614703,0.0417823614967605,0.0445590374190136,0.0241306359910088,0.1039931244215258,0.0981753272510908,0.1028692317863281,0.0089911410815813,0.0655163294988761,Big Families
1147,1321,Bsc. Terri Richardson,female,7,1,1,1,6973.0,2457.0,19.0,500.0,483.0,296.0,335.0,768.0,1020.0,934.0,1338.0,537.0,2009,38.761853401899245,-9.146076150976402,1,0.2145723352595548,Bsc,8,58,15104.0,0.4616657838983051,0.1626721398305084,0.033103813559322,0.031978283898305,0.0195974576271186,0.0221795550847457,0.0508474576271186,0.0675317796610169,0.0618379237288135,0.0885858050847457,Big Families
1150,1324,Bsc. Robert Slater,male,0,1,1,1,3863.0,2755.0,20.0,419.0,500.0,210.0,712.0,992.0,981.0,1483.0,619.0,414.0,2006,38.77429405837093,-9.13814180258545,1,0.0795520256187027,Bsc,1,81,12534.0,0.3082016913993936,0.2198021381841391,0.0334290729216531,0.0398914951332375,0.0167544279559597,0.0568054890697303,0.0791447263443433,0.0782671134514121,0.1183181745651827,0.0493856709749481,Big Families
1157,1331,Phd. Brandon Medina,male,4,2,0,1,2972.0,4276.0,22.0,453.0,498.0,187.0,1434.0,577.0,471.0,1185.0,516.0,280.0,2010,38.76843493117824,-9.125271766157134,1,0.3274317861170773,Phd,6,78,12569.0,0.2364547696714138,0.3402020844935953,0.036041053385313,0.0396212904765693,0.014877874134776,0.1140902219746996,0.0459065955923303,0.0374731482218155,0.0942795767364149,0.0410533853130718,Big Families
1175,1350,Bsc. Doyle Slater,male,1,2,1,2,4296.0,2238.0,18.0,542.0,381.0,367.0,1230.0,1469.0,1191.0,1653.0,1068.0,225.0,2008,38.70017511432472,-9.138849884079145,1,0.1424629850663946,Bsc,3,46,14435.0,0.2976099757533772,0.1550398337374437,0.0375476272947696,0.0263941808105299,0.0254243158988569,0.0852095600969864,0.1017665396605472,0.0825077935573259,0.1145133356425355,0.0739868375476272,Big Families
1176,1351,Phd. Carla Mccallum,female,5,2,1,1,5183.0,1421.0,15.0,710.0,606.0,416.0,260.0,1156.0,1156.0,977.0,766.0,494.0,2009,38.76864763354691,-9.130441863562034,1,0.2418259723581628,Phd,7,52,12651.0,0.4096909335230416,0.1123231365109477,0.0561220456880879,0.0479013516718046,0.0328827760651331,0.0205517350407082,0.0913761757963797,0.0913761757963797,0.0772270966721998,0.0605485732353173,Big Families
1178,1353,Bsc. Steven Kramer,male,2,1,2,1,4830.0,2766.0,18.0,404.0,553.0,275.0,1262.0,1387.0,1010.0,714.0,1144.0,153.0,2007,38.743106475774646,-9.135132267876504,1,0.2201829085875642,Bsc,3,47,14345.0,0.3367026838619728,0.1928197978389682,0.0281631230393865,0.0385500174276751,0.0191704426629487,0.0879749041477866,0.0966887417218543,0.0704078075984663,0.0497734402230742,0.0797490414778668,Big Families
1182,1357,Phd. Madeline Daniels,female,9,1,1,1,5886.0,1880.0,21.0,518.0,731.0,231.0,927.0,257.0,688.0,1046.0,1227.0,894.0,2015,38.77157085823513,-9.1521006896653,1,0.2014686227364971,Phd,10,36,13391.0,0.4395489507878425,0.1403928011350907,0.0386826973340303,0.0545889029945485,0.0172503920543648,0.0692255992831005,0.0191919946232544,0.0513777910536927,0.0781121648868643,0.0916287058472108,Big Families
1191,1367,Phd. Michael Webb,male,0,2,1,1,3573.0,2112.0,10.0,474.0,518.0,114.0,890.0,1471.4238457539814,757.0,1160.0,684.0,687.0,2012,38.758561991488456,-9.171225330089989,1,0.0690387329301587,Phd,2,35,11753.42384575398,0.3039965244927992,0.1796923201032163,0.0403286741140741,0.0440722641162244,0.0096993013692076,0.0757226159525864,0.125191081770232,0.0644067643551774,0.0986946455112362,0.0581958082152461,Big Families
1193,1369,Msc. Rodney Alaniz,male,1,2,1,1,5297.0,2959.0,23.0,499.0,579.0,314.0,712.0,716.0,1670.0,815.0,753.0,104.0,2013,38.702258393662326,-9.205774958075835,1,0.2377080340967476,Msc,3,47,14314.0,0.3700572865725863,0.2067206930278049,0.0348609752689674,0.0404499091798239,0.0219365656001117,0.0497415118066228,0.0500209585021657,0.1166689953891295,0.0569372642168506,0.0526058404359368,Big Families
1198,1375,Bsc. Alice Scott,female,6,2,1,1,5454.0,1201.0,23.0,653.0,515.0,318.0,835.0,1471.4238457539814,232.0,1280.0,1051.0,685.0,2014,38.74590208905222,-9.227871897111736,1,0.3146410478258226,Bsc,8,35,13010.42384575398,0.4192023307357462,0.0923105975822572,0.0501905247470557,0.0395836450914758,0.0244419400759015,0.0641793080609365,0.1130957656106021,0.017831855652859,0.0983826518778429,0.0807813805653225,Big Families
1211,1390,Msc. Lourdes Vanderweide,female,2,2,1,1,4047.0,2508.0,13.52057966862436,501.0,551.0,336.0,1215.0,868.0,945.0,880.0,158.0,295.0,2008,38.76057594211382,-9.197242782884148,1,0.2150476989787856,Msc,4,62,12009.0,0.3369972520609542,0.2088433674743942,0.0417187109667749,0.045882254975435,0.0279790157381963,0.1011741194104421,0.0722791239903405,0.0786909817636772,0.073278374552419,0.0131567990673661,Big Families
1223,1404,Phd. Diane Moller,female,2,2,1,1,4359.0,2849.0,13.52057966862436,561.0,444.0,152.0,1138.0,961.0,1177.0,1107.0,1602.0,543.0,2010,38.79448102094819,-9.156594968281407,1,0.0760498341178604,Phd,4,72,14350.0,0.3037630662020906,0.1985365853658536,0.0390940766550522,0.0309407665505226,0.0105923344947735,0.0793031358885017,0.0669686411149825,0.0820209059233449,0.0771428571428571,0.1116376306620209,Big Families
1230,1411,Phd. Harold Runge,male,4,2,1,1,4716.0,3340.0,20.0,529.0,533.0,368.0,971.0,1236.0,1296.0,1356.0,1254.0,456.0,2006,38.716025576462776,-9.11468676209999,1,0.3063114290748152,Phd,6,69,15599.0,0.302327072248221,0.2141162895057375,0.0339124302839925,0.0341688569780114,0.0235912558497339,0.0622475799730751,0.0792358484518238,0.0830822488621065,0.0869286492723892,0.0803897685749086,Big Families
1234,1415,Msc. Sharon Brooks,female,0,0,1,1,4682.0,2546.0,18.0,603.0,355.0,442.0,533.0,2167.0,908.0,927.0,1163.0,190.0,2015,38.708142720754985,-9.165878754824206,1,0.0999598319686727,Msc,0,49,14326.0,0.326818372190423,0.1777188328912466,0.0420913025268742,0.0247801200614267,0.0308529945553539,0.0372050816696914,0.1512634371073572,0.0633812648331704,0.06470752478012,0.0811810693843361,Big Families
1235,1416,Msc. Kathy Duffy,female,3,2,1,1,4340.0,1391.0,17.0,562.0,468.0,199.0,1091.0,922.0,351.0,1057.0,1129.0,805.0,2009,38.747501078809314,-9.128928610888211,1,0.2333965945337547,Msc,5,72,11510.0,0.3770634231103388,0.1208514335360556,0.0488271068635968,0.0406602953953084,0.0172893136403127,0.0947871416159861,0.0801042571676802,0.0304952215464813,0.0918331885317115,0.0980886185925282,Big Families
1236,1417,Bsc. Michael Castro,male,2,2,0,1,5729.0,654.0,19.0,497.0,234.0,397.0,101.0,684.0,1273.0,1420.0,1367.0,472.0,2010,38.73817217298019,-9.145801609675068,1,0.2250348243977586,Bsc,4,80,12356.0,0.4636613790870832,0.052929750728391,0.0402233732599546,0.0189381676918096,0.0321301392036257,0.0081741663968921,0.0553577209452897,0.103026869537067,0.1149239235998705,0.1106345095500161,Big Families
1238,1420,Phd. Anthony Byfield,male,4,0,1,1,5833.0,1014.0,17.0,493.0,602.0,353.0,828.0,876.0,1189.0,1362.0,779.0,446.0,2023,38.72634634535717,-9.100820721421714,1,0.0682543700926786,Phd,4,23,13329.0,0.4376172255983194,0.0760747242853927,0.036987020781754,0.0451646785205191,0.026483607172331,0.0621201890614449,0.0657213594418185,0.0892039912971715,0.1021832095431015,0.0584439942981468,Big Families
1241,1426,Phd. Joshua Milligan,male,5,0,2,1,4814.0,1233.0,20.0,465.0,536.0,515.0,1237.0,723.0,926.0,1490.0,791.0,487.0,2017,38.780548400471474,-9.112172539238294,1,0.272130113831108,Phd,5,44,12730.0,0.3781618224666143,0.0968578161822466,0.0365278868813825,0.0421052631578947,0.0404556166535742,0.097172034564022,0.0567949725058915,0.0727415553809898,0.1170463472113118,0.0621366849960722,Big Families
1249,1434,Phd. Laurie Powell,female,2,0,1,1,3570.0,1839.0,14.0,504.0,381.0,230.0,496.0,1471.4238457539814,1302.0,893.0,1195.0,686.0,2011,38.76874964682429,-9.175758959314257,1,0.2022376003498022,Phd,2,36,11881.42384575398,0.3004690385888217,0.1547794291218048,0.0424191583890101,0.0320668637821683,0.019357949264826,0.0417458384145814,0.1238423832746122,0.1095828258382761,0.0751593421456072,0.1005771711802918,Big Families
1252,1440,Phd. Gloria Nolan,female,2,2,0,1,5058.0,2209.0,18.0,529.0,556.0,95.0,481.0,1513.0,487.0,933.0,633.0,1061.0,2016,38.71502225768474,-9.190423383248612,1,0.1001315413832305,Phd,4,49,12494.0,0.4048343204738274,0.1768048663358412,0.0423403233552105,0.0445013606531135,0.0076036497518809,0.0384984792700496,0.1210981271010084,0.0389787097806947,0.0746758444053145,0.050664318873059,Big Families
1258,1446,Phd. Karl Long,male,0,2,0,1,5802.0,913.0,22.0,482.0,527.0,360.0,1241.0,1471.4238457539814,532.0,946.0,1089.0,350.0,2008,38.73807502687285,-9.136139832044076,1,0.22675442497861,Phd,2,60,13363.42384575398,0.4341701697835091,0.0683208143764811,0.0360686007989747,0.0394360012885055,0.0269392039162466,0.0928654223890615,0.1101082972999844,0.0398101568984534,0.0707902414021371,0.0814910918466462,Big Families
1274,1466,Msc. Leila Naegeli,female,2,2,1,1,4885.0,2567.0,13.52057966862436,602.0,438.0,440.0,883.0,1415.0,1705.0,737.0,1388.0,708.0,2008,38.71601394292404,-9.187774017312504,1,0.3083758296594738,Msc,4,43,15060.0,0.3243691899070385,0.1704515272244356,0.0399734395750332,0.0290836653386454,0.0292164674634794,0.0586321381142098,0.0939575033200531,0.1132138114209827,0.048937583001328,0.0921646746347941,Big Families
1275,1468,Bsc. Karen Bishop,female,3,2,1,1,4513.0,611.0,9.0,389.0,539.0,428.0,1221.0,1736.0,1358.0,1163.0,1203.0,343.0,2010,38.734311065812406,-9.20956518848566,1,0.1562161549132272,Bsc,5,66,13161.0,0.3429070739305523,0.0464250436896892,0.029557024542208,0.0409543347769926,0.032520325203252,0.0927741053111465,0.1319048704505736,0.1031836486589165,0.0883671453536965,0.0914064280829724,Big Families
1276,1469,Msc. Shanita Schnelder,female,6,2,1,1,7869.0,2695.0,19.0,401.0,408.0,328.0,806.0,1064.0,976.0,983.0,267.0,430.0,2012,38.72680063107441,-9.17552267166153,1,0.1777582927772054,Msc,8,39,15797.0,0.498132556814585,0.1706020130404507,0.0253845666898778,0.0258276888016712,0.0207634360954611,0.0510223460150661,0.0673545609925935,0.0617838830157624,0.0622270051275558,0.016901943406976,Big Families
1286,1479,Bsc. Elizabeth Tran,female,0,2,1,1,3200.0,655.0,19.0,451.0,537.0,222.0,773.0,1630.0,769.0,1335.0,149.0,357.0,2010,38.77293132593028,-9.118698950455734,1,0.1589519254389828,Bsc,2,50,9721.0,0.3291842403044954,0.0673798991873264,0.0463944038679148,0.0552412303260981,0.0228371566711243,0.0795185680485546,0.1676782224051023,0.079107087748174,0.1373315502520317,0.015327641189178,Big Families
1296,1491,Msc. Stephanie Mccann,female,3,1,1,1,6160.0,3431.0,23.0,574.0,576.0,290.0,642.0,1453.0,1478.0,1790.0,1446.0,79.0,2007,38.768013093245365,-9.167297847877004,1,0.2443246934297159,Msc,4,71,17840.0,0.3452914798206278,0.1923206278026905,0.0321748878923766,0.032286995515695,0.0162556053811659,0.0359865470852017,0.0814461883408071,0.082847533632287,0.1003363228699551,0.0810538116591928,Big Families
1302,1499,Phd. Sharon Murry,female,5,2,1,1,6788.0,1167.0,23.0,619.0,590.0,255.0,839.0,542.0,1171.0,815.0,476.0,442.0,2008,38.753074123887295,-9.150822746147968,1,0.287484191732029,Phd,7,47,13262.0,0.5118383350927462,0.0879957774091388,0.0466747096968783,0.0444880108580907,0.0192278690996833,0.0632634595083697,0.0408686472628562,0.0882973910420751,0.0614537777107525,0.0358920223194088,Big Families
1322,1521,Msc. Elaine Olmstead,female,3,2,2,1,5513.0,3677.0,12.0,569.0,522.0,399.0,937.0,1149.0,958.0,1463.0,678.0,575.0,2011,38.728416302674816,-9.193676932496794,1,0.3766838726804589,Msc,5,47,15865.0,0.3474944847147809,0.2317680428616451,0.0358651118815001,0.0329026158209896,0.0251497005988023,0.059060825716987,0.0724235739048219,0.0603844941695556,0.0922155688622754,0.0427355814686416,Big Families
1328,1528,Msc. Roseann Grier,female,4,2,1,1,4485.0,2024.0,23.0,387.0,465.0,228.0,1057.0,1034.0,757.0,841.0,1367.0,610.0,2006,38.75429868347654,-9.154610125354758,1,0.3959236612276957,Msc,6,41,12645.0,0.3546856465005931,0.1600632661130882,0.0306049822064056,0.0367734282325029,0.0180308422301304,0.083590351917754,0.0817714511664689,0.0598655595096876,0.0665085013839462,0.1081059707394227,Big Families
1331,1531,Phd. Scott Hollander,male,2,1,1,1,7159.0,2896.0,18.0,459.0,393.0,191.0,2027.0,1020.0,1048.0,761.0,703.0,607.0,2013,38.76470936406697,-9.173812046266733,1,0.0837766554739961,Phd,3,72,16657.0,0.429789277781113,0.1738608392867863,0.0275559824698325,0.0235936843369154,0.0114666506573812,0.1216905805367112,0.0612355165996277,0.0629164915651077,0.0456864981689379,0.0422044785975866,Big Families
1332,1532,Phd. Calvin Park,male,5,2,1,1,4696.0,2278.0,18.0,529.0,490.0,234.0,842.0,518.0,790.0,327.0,989.0,38.0,2010,38.7245700090899,-9.209156945383215,1,0.2864236522839676,Phd,7,33,11693.0,0.4016077995381852,0.1948174121269135,0.0452407423244676,0.0419054134952535,0.0200119729752843,0.0720088942102112,0.0443000085521252,0.0675617891045924,0.0279654494141794,0.0845805182587873,Big Families
1339,1540,Bsc. Jon Miller,male,5,3,2,1,5007.0,1894.0,21.0,544.0,412.0,250.0,646.0,1224.0,1439.0,1106.0,1257.0,211.0,2011,38.758522146760434,-9.067227447604935,1,0.1976204964741706,Bsc,8,39,13779.0,0.3633790550838232,0.1374555482981348,0.0394803686769722,0.0299005733362363,0.0181435517816967,0.0468829378039044,0.0888308295231874,0.1044342840554466,0.0802670730822265,0.0912257783583714,Big Families
1344,1545,Msc. Diane Davis,female,1,2,2,1,4366.0,3138.0,22.0,395.0,468.0,240.0,266.0,794.0,1369.0,635.0,1434.0,362.0,2012,38.744602619971374,-9.209902323868706,1,0.3703586031209531,Msc,3,76,13105.0,0.3331552842426554,0.2394505913773369,0.0301411674933231,0.0357115604731018,0.0183136207554368,0.0202975963372758,0.0605875619992369,0.1044639450591377,0.04845478824876,0.1094238840137352,Big Families
1346,1547,Msc. Allen Silbert,male,3,1,1,1,6260.0,3625.0,21.0,504.0,412.0,402.0,1016.0,1207.0,989.0,1222.0,646.0,500.0,2003,38.71369042800076,-9.18133482277219,1,0.3371541979787404,Msc,4,61,16283.0,0.3844500399189338,0.2226248234354848,0.0309525271755818,0.0253024626911502,0.0246883252471903,0.0623963643063317,0.0741263894859669,0.0607381932076398,0.0750475956519069,0.0396732788798133,Big Families
1353,1556,Phd. Lillie Austin,female,1,3,1,1,4285.0,3048.0,11.0,515.0,563.0,197.0,834.0,1448.0,1149.0,766.0,1176.0,151.0,2021,38.71865879632978,-9.16320949761846,1,0.0015824318231682,Phd,4,25,13981.0,0.3064873757241971,0.2180101566411558,0.0368357056004577,0.0402689364137043,0.0140905514626993,0.0596523853801587,0.1035691295329375,0.0821829625920892,0.0547886417280595,0.0841141549245404,Big Families
1355,1558,Bsc. Larry Patel,male,2,3,1,2,4755.0,3701.0,19.0,428.0,365.0,377.0,631.0,1068.0,565.0,1286.0,933.0,131.0,2015,38.74800262890883,-9.194129034339248,1,0.0795971173846704,Bsc,5,32,14109.0,0.3370189240910057,0.2623148345027996,0.0303352470054575,0.0258700120490467,0.0267205329931249,0.0447232263094478,0.075696364022964,0.0400453611170175,0.0911474945070522,0.0661280034020837,Big Families
1356,1559,Msc. Jana Bolar,female,1,1,1,1,4495.0,2144.0,16.0,407.0,403.0,319.0,803.0,1586.0,420.0,305.0,862.0,267.0,2012,38.729019577438834,-9.198970168434446,1,0.2225075003496222,Msc,2,44,11744.0,0.3827486376021798,0.1825613079019073,0.0346559945504087,0.0343153950953678,0.0271628065395095,0.068375340599455,0.1350476839237057,0.0357629427792915,0.0259707084468664,0.0733991825613079,Big Families
1359,1563,Phd. James Barajas,male,8,2,1,1,8784.0,156.0,21.0,614.0,643.0,233.0,330.0,1471.4238457539814,1003.0,666.0,766.0,430.0,2015,38.7197109405653,-9.114703066548453,1,0.1260562616970494,Phd,10,50,14666.42384575398,0.5989190065949868,0.0106365397346104,0.0418643294682743,0.0438416349317596,0.0158866266548988,0.022500372515522,0.1003260141142019,0.0683874958577836,0.0454098427131444,0.0522281374148178,Big Families
1362,1567,Bsc. Rita Collette,female,4,2,1,1,4683.0,4978.0,19.0,308.0,389.0,166.0,657.0,51.0,431.0,912.0,779.0,1104.0,2008,38.74250639093008,-9.131530439667548,1,0.1378293175785681,Bsc,6,55,13354.0,0.3506814437621686,0.3727722030852179,0.0230642504118616,0.0291298487344615,0.0124307323648345,0.0491987419499775,0.0038190804253407,0.0322749737906245,0.0682941440766811,0.0583345813988318,Big Families
1371,1578,Bsc. Cynthia Davis,female,0,2,1,1,4891.0,2839.0,20.0,539.0,562.0,227.0,1210.0,996.0,1190.0,1415.0,1033.0,362.0,2011,38.72392111895099,-9.106435438782093,1,0.2346684101978718,Bsc,2,44,14902.0,0.3282109783921621,0.1905113407596295,0.0361696416588377,0.0377130586498456,0.0152328546503824,0.0811971547443296,0.0668366662192994,0.0798550530130183,0.0949536974902697,0.0693195544222252,Big Families
1377,1585,Msc. Gail Nielsen,female,1,2,1,1,5829.0,3066.0,21.0,458.0,521.0,262.0,1225.0,1489.0,830.0,1225.0,600.0,935.0,2007,38.740067976771286,-9.182273915257795,1,0.2619784341748461,Msc,3,38,15505.0,0.3759432441148017,0.1977426636568848,0.0295388584327636,0.0336020638503708,0.0168977749113189,0.0790067720090293,0.0960335375685262,0.0535311189938729,0.0790067720090293,0.0386971944534021,Big Families
1384,1592,Bsc. Linda Nance,female,2,2,1,1,3754.0,1325.0,15.0,520.0,463.0,133.0,9.0,878.0,817.0,1372.0,681.0,711.0,2017,38.77341226123157,-9.17836419030357,1,0.2742538785260392,Bsc,4,30,9952.0,0.3772106109324759,0.1331390675241157,0.0522508038585209,0.0465233118971061,0.0133641479099678,0.0009043408360128,0.0882234726688103,0.0820940514469453,0.1378617363344051,0.0684284565916398,Big Families
1388,1596,Bsc. Felipe Santiago,male,4,0,0,1,3630.0,4757.0,24.0,575.0,480.0,88.0,1288.0,1140.0,1320.0,946.0,1002.0,357.0,2022,38.72417163497519,-9.203021174458422,1,0.2509224598858678,Bsc,4,24,15226.0,0.2384079863391567,0.3124261132273742,0.0377643504531722,0.0315250229869959,0.0057795875476159,0.0845921450151057,0.0748719295941153,0.0866938132142388,0.0621305661368711,0.0658084854853539,Big Families
1389,1597,Msc. Grace Roessler,female,3,2,2,2,6261.0,2813.0,16.0,615.0,548.0,128.0,1357.0,543.0,611.0,995.0,1200.0,534.0,2010,38.78821425978756,-9.065020319254266,1,0.3774205224934341,Msc,5,56,15071.0,0.4154336142259969,0.1866498573419149,0.040806847588083,0.0363612235419016,0.0084931325061376,0.0900404750845995,0.0360294605533806,0.0405414371972662,0.0660208347156791,0.0796231172450401,Big Families
1390,1598,Bsc. Gina Hoagland,female,3,2,1,1,3332.0,2252.0,20.0,400.0,507.0,135.0,1595.0,1235.0,809.0,758.0,974.0,452.0,2016,38.76718962148484,-9.200791823941987,1,0.0829359922241596,Bsc,5,80,11997.0,0.2777361006918396,0.187713595065433,0.0333416687505209,0.0422605651412853,0.0112528132033008,0.1329499041427023,0.1029424022672334,0.0674335250479286,0.0631824622822372,0.0811869634075185,Big Families
1397,1608,Bsc. Rose Schneider,female,3,2,2,1,2498.0,1751.0,20.0,298.0,310.0,319.0,699.0,458.0,872.0,1260.0,1352.0,468.0,2019,38.751114604804215,-9.198088293404926,1,0.1760186691317135,Bsc,5,77,9817.0,0.2544565549556891,0.1783640623408373,0.0303555057553224,0.0315778751145971,0.0324946521340531,0.0712030151777528,0.0466537638789854,0.0888255067739635,0.1283487827238464,0.1377202811449526,Big Families
1413,1624,Phd. Kathryn Bold,female,5,2,1,1,4225.0,748.0,20.0,561.0,503.0,227.0,1657.0,1882.0,1303.0,969.0,780.0,625.0,2015,38.78772856673779,-9.118996412578037,1,0.1772124359671166,Phd,7,55,12855.0,0.3286658887592376,0.0581874756903928,0.0436406067677946,0.0391287436795021,0.017658498638662,0.1288992609879424,0.1464021781408012,0.1013613380007779,0.0753792298716452,0.0606767794632438,Big Families
1418,1629,Phd. Paul Kuhns,male,0,3,1,2,4566.0,1683.0,12.0,638.0,555.0,299.0,634.0,798.0,1540.0,1180.0,1113.0,271.0,2009,38.7099035187964,-9.151842623401595,1,0.2019157570242794,Phd,3,77,13006.0,0.3510687375057665,0.1294018145471321,0.0490542826387821,0.0426726126403198,0.0229893895125326,0.0487467322774104,0.061356297093649,0.1184068891280947,0.090727356604644,0.0855758880516684,Big Families
1424,1635,Phd. Marie Pouliot,female,2,3,0,1,4651.0,1216.0,15.0,557.0,393.0,64.0,440.0,1777.0,1221.0,462.0,943.0,241.0,2017,38.78357383277781,-9.087865887702106,1,0.2302454307784258,Phd,5,43,11724.0,0.3967076083248038,0.1037188672807915,0.0475093824633231,0.0335209825997952,0.0054588877516206,0.0375298532923916,0.1515694302285909,0.1041453428863869,0.0394063459570112,0.0804332992152848,Big Families
1432,1644,Bsc. Lawrence Silverstein,male,4,1,1,1,6582.0,557.0,21.0,345.0,576.0,317.0,1070.0,1318.0,1241.0,970.0,1203.0,645.0,2009,38.75604807570119,-9.201692063103463,1,0.1450080232481104,Bsc,5,66,14179.0,0.4642076310035968,0.0392834473517173,0.024331758234008,0.0406234572254742,0.022357006841103,0.0754637139431553,0.0929543691374568,0.087523802806968,0.068411030397066,0.0848437830594541,Big Families
1442,1658,Phd. Victor Ferguson,male,3,3,1,1,4123.0,1957.0,23.0,415.0,312.0,345.0,717.0,1129.0,961.0,783.0,783.0,599.0,2014,38.75175169899181,-9.18871672616554,1,0.382137961931586,Phd,6,38,11525.0,0.3577440347071584,0.1698047722342733,0.0360086767895878,0.0270715835140997,0.0299349240780911,0.0622125813449023,0.0979609544468546,0.0833839479392624,0.067939262472885,0.067939262472885,Big Families
