,customer_id,customer_name,customer_gender,kids_home,teens_home,number_complaints,distinct_stores_visited,spend_groceries,spend_electronics,typical_hour,spend_vegetables,spend_nonalcohol_drinks,spend_alcohol_drinks,spend_meat,spend_fish,spend_hygiene,spend_videogames,spend_petfood,total_distinct_products,year_first_transaction,latitude,longitude,has_loyalty_card,treated_percentage_of_products_bought_promotion,Education,Children,Age,Total Amount Spent,percentage_spend_groceries,percentage_spend_electronics,percentage_spend_vegetables,percentage_spend_nonalcohol_drinks,percentage_spend_alcohol_drinks,percentage_spend_meat,percentage_spend_fish,percentage_spend_hygiene,percentage_spend_videogames,percentage_spend_petfood,cluster
7,8,Arthur Dematteo,male,0,0,1,1,7902.0,201.0,13.0,178.0,437.0,10.0,327.0,1.0,47.0,0.0,14620.0,67.0,2005,38.77163740088934,-9.174225226576665,1,0.2091289475149154,No Degree,0,56,23723.0,0.3330944652868524,0.0084727901192935,0.0075032668718121,0.0184209417021456,0.000421531846731,0.0137840913881043,4.215318467310205e-05,0.0019811996796357,0.0,0.616279559920752,Pet Lovers
27,33,Stan Vian,male,0,0,1,1,9889.0,178.0,7.0,36.0,523.0,22.0,132.0,201.0,75.0,0.0,15391.0,41.0,2012,38.72366742211744,-9.206492169804449,1,0.0799166683317014,No Degree,0,80,26447.0,0.3739176466139827,0.0067304420161076,0.0013612129920217,0.0197753998563164,0.0008318523840133,0.0049911143040798,0.0076001058721216,0.0028358604000453,0.0,0.5819563655613113,Pet Lovers
43,50,Doloris Atwell,female,0,0,0,1,10575.0,136.0,14.0,76.0,397.0,55.0,413.0,265.0,106.0,0.0,7679.0,77.0,2009,38.720489942505615,-9.19092486667953,1,0.2046735232003547,No Degree,0,68,19702.0,0.5367475383209827,0.006902852502284,0.0038574763983351,0.0201502385544614,0.0027915947619531,0.0209623388488478,0.013450411125774,0.0053801644503096,0.0,0.3897573850370521,Pet Lovers
46,53,Salvatore Blackmon,male,0,0,0,1,11573.0,214.0,17.0,176.0,428.0,39.0,38.0,274.0,69.0,0.0,12592.0,86.0,2011,38.78388504961138,-9.212755429505076,1,0.2404454093086713,No Degree,0,83,25403.0,0.4555761130575129,0.0084242018659213,0.0069283155532811,0.0168484037318426,0.0015352517419202,0.0014958863126402,0.0107861276227217,0.0027162146203204,0.0,0.4956894854938393,Pet Lovers
51,58,Ann Nall,female,0,0,0,1,12934.0,56.0,11.0,228.0,477.0,15.0,59.0,270.0,47.0,0.0,12831.0,70.0,2012,38.77154560683622,-9.207154824449468,1,0.3091142986828382,No Degree,0,38,26917.0,0.4805141731990935,0.0020804695917078,0.0084704833376676,0.0177211427722257,0.000557268640636,0.002191923319835,0.0100308355314485,0.0017461084073262,0.0,0.4766875952000594,Pet Lovers
65,76,Thomas Davis,male,0,0,1,1,14129.0,10.0,10.0,268.0,473.0,22.0,156.0,352.0,101.0,0.0,6119.0,8.0,2015,38.75371615003524,-9.20087251980267,1,0.1580573850485599,No Degree,0,31,21630.0,0.6532131299121591,0.0004623208506703,0.0123901987979657,0.0218677762367082,0.0010171058714748,0.0072122052704576,0.0162736939435968,0.0046694405917706,0.0,0.2828941285251964,Pet Lovers
77,92,Lura Speis,female,0,0,0,1,6130.0,8.0,18.0,300.0,560.0,43.0,163.0,244.0,135.0,0.0,9732.0,57.0,2009,38.747157549557365,-9.151173856393752,1,0.3276439594753811,No Degree,0,44,17315.0,0.3540282991625758,0.0004620271440947,0.0173260179035518,0.03234190008663,0.002483395899509,0.0094138030609298,0.0140918278948888,0.0077967080565983,0.0,0.5620560207912215,Pet Lovers
88,103,Eunice Sancho,female,0,0,1,1,11971.0,17.0,14.0,336.0,506.0,2.0,162.0,229.0,38.0,0.0,9643.0,68.0,2009,38.77449257256397,-9.15139005234807,1,0.1835725758181164,No Degree,0,34,22904.0,0.5226597974152987,0.0007422284317149,0.0146699266503667,0.0220922109675165,8.732099196646873e-05,0.0070730003492839,0.0099982535801606,0.0016590988473629,0.0,0.421018162766329,Pet Lovers
96,112,Betty Hill,female,0,0,1,1,4576.0,88.0,17.0,96.0,513.0,14.0,124.0,178.0,122.0,0.0,8454.0,90.0,2006,38.76474665821922,-9.156684822403388,1,0.3294849968187079,No Degree,0,49,14165.0,0.3230497705612425,0.0062124955877162,0.0067772679138722,0.0362160254147546,0.000988351570773,0.0087539710554182,0.0125661842569714,0.0086127779738792,0.0,0.5968231556653724,Pet Lovers
101,118,Elizabeth Cummings,female,0,0,0,1,13913.0,105.0,12.0,284.0,651.0,9.0,262.0,69.0,21.0,0.0,6561.0,62.0,2013,38.77368437044617,-9.20424686181627,1,0.1973823359362015,No Degree,0,34,21875.0,0.6360228571428571,0.0048,0.0129828571428571,0.02976,0.0004114285714285,0.0119771428571428,0.0031542857142857,0.00096,0.0,0.2999314285714285,Pet Lovers
104,124,Reyna Seanez,female,0,0,0,1,10308.0,41.0,12.0,113.0,674.0,0.0,308.0,13.0,224.0,0.0,13149.0,47.0,2008,38.783378705496816,-9.184948615318174,1,0.1091028941170836,No Degree,0,59,24830.0,0.415142972211035,0.001651228352799,0.0045509464357631,0.0271445831655255,0.0,0.0124043495771244,0.000523560209424,0.0090213451469995,0.0,0.529561014901329,Pet Lovers
105,125,Elizabeth Gurley,female,0,0,0,1,13494.0,187.0,13.0,226.0,344.0,3.0,94.0,19.0,49.0,0.0,9033.0,21.0,2013,38.73404474960042,-9.133424131424707,1,0.2212473404353989,No Degree,0,49,23449.0,0.5754616401552305,0.0079747537208409,0.0096379376519254,0.0146701351870015,0.000127937225468,0.0040086997313318,0.0008102690946309,0.0020896413493112,0.0,0.3852189858842594,Pet Lovers
117,138,Kelly Carpenter,female,0,0,1,1,11178.0,84.0,17.0,26.0,628.0,3.0,133.0,199.0,113.0,0.0,7659.0,120.0,2012,38.760891168727,-9.16634434311782,1,0.2975508706774644,No Degree,0,47,20023.0,0.5582580032962093,0.0041951755481196,0.0012985067172751,0.0313639314787993,0.0001498276981471,0.0066423612845227,0.0099385706437596,0.0056435099635419,0.0,0.3825101133696249,Pet Lovers
120,143,Kelly Duskey,female,0,0,1,1,5722.0,51.0,17.0,84.0,674.0,27.0,339.0,259.0,12.0,0.0,12291.0,86.0,2009,38.76685511785153,-9.133108848390208,1,0.0930748168263412,No Degree,0,83,19459.0,0.2940541651677887,0.0026208952155814,0.0043167685903694,0.0346369289274885,0.0013875327611901,0.0174212446682768,0.0133100364869726,0.0006166812271956,0.0,0.6316357469551365,Pet Lovers
124,147,Stephen Curran,male,0,0,0,1,10218.0,31.0,6.0,366.0,566.0,31.0,231.0,210.0,48.0,0.0,8000.0,49.0,2007,38.73508794442758,-9.138566740943364,1,0.1712469610294808,No Degree,0,50,19701.0,0.5186538754377951,0.0015735241865895,0.0185777371707019,0.0287295061164407,0.0015735241865895,0.0117252931323283,0.0106593573930257,0.0024364245469773,0.0,0.4060707578295518,Pet Lovers
133,157,Basil Marion,male,0,0,0,1,12896.0,103.0,14.0,271.0,272.0,58.0,292.0,288.0,59.0,0.0,10500.0,50.0,2012,38.77308621678526,-9.169876761555718,1,0.1641655714699226,No Degree,0,65,24739.0,0.5212821860220704,0.0041634665912122,0.0109543635555196,0.0109947855612595,0.0023444763329156,0.011803225676058,0.0116415376530983,0.0023848983386555,0.0,0.4244310602692105,Pet Lovers
135,159,Rose Noell,female,0,0,0,1,10384.0,39.0,9.0,116.0,542.0,129.0,314.0,208.0,158.0,0.0,9263.0,102.0,2008,38.72045246226727,-9.170203043294944,1,0.2877503866610202,No Degree,0,55,21153.0,0.4908996359854394,0.0018437101120408,0.005483855717865,0.025622843095542,0.006098425755212,0.0148442301328416,0.0098331205975511,0.0074693896846782,0.0,0.4379047889188295,Pet Lovers
152,179,Evelyn Clark,female,0,0,0,1,2806.0,198.0,11.0,63.0,439.0,67.0,160.0,245.0,80.0,0.0,9451.0,25.0,2006,38.77373218262927,-9.134038523155002,1,0.2726079960218699,No Degree,0,80,13509.0,0.2077133762676734,0.0146568954030646,0.0046635576282478,0.032496853949219,0.0049596565252794,0.0118439558812643,0.018136057443186,0.0059219779406321,0.0,0.6996076689614331,Pet Lovers
168,197,Priscilla Kurter,female,0,0,1,1,8790.0,16.0,15.0,127.0,634.0,66.0,207.0,235.0,152.0,0.0,13634.0,72.0,2007,38.75316323253039,-9.158475271273744,1,0.2094054069070509,No Degree,0,45,23861.0,0.3683835547546205,0.0006705502703155,0.0053224927706298,0.0265705544612547,0.0027660198650517,0.0086752441222077,0.00984870709526,0.0063702275679979,0.0,0.5713926490926616,Pet Lovers
190,223,Janie Simon,female,0,0,0,1,14840.0,366.0,14.0,114.0,445.0,53.0,178.0,351.0,36.0,0.0,12261.0,16.0,2014,38.76112331334733,-9.203503922165412,1,0.1575543557781258,No Degree,0,32,28644.0,0.5180840664711632,0.0127775450356095,0.0039798910766652,0.0155355397290881,0.001850300237397,0.0062142158916352,0.0122538751571009,0.0012568077084206,0.0,0.42804775869292,Pet Lovers
200,236,Aaron Cooper,male,0,0,0,1,5726.0,264.0,10.0,274.0,706.0,62.0,30.0,235.0,92.0,0.0,10542.0,114.0,2011,38.72203626589303,-9.181660007740511,1,0.1676666352319105,No Degree,0,37,17931.0,0.3193352294908259,0.0147231052367408,0.0152807986169204,0.0393731526406781,0.0034576989571133,0.0016730801405387,0.01310579443422,0.0051307790976521,0.0,0.5879203613853103,Pet Lovers
201,237,Catherine Fuller,female,0,0,1,1,9714.0,163.0,7.0,190.0,696.0,40.0,362.0,206.0,11.0,0.0,9394.0,35.0,2008,38.75895131375287,-9.152374596979069,1,0.2562676288369576,No Degree,0,43,20776.0,0.4675587216018483,0.0078455910666153,0.0091451675009626,0.0335001925298421,0.0019252984212552,0.0174239507123604,0.0099152868694647,0.0005294570658452,0.0,0.4521563342318059,Pet Lovers
233,273,Claudia Dresbach,female,0,0,0,1,17132.0,0.0,10.0,76.0,523.0,7.0,255.0,198.0,51.0,0.0,14329.0,43.0,2022,38.727422538542,-9.14223518950804,1,0.2448279698791005,No Degree,0,25,32571.0,0.5259893770532068,0.0,0.0023333640354916,0.0160572288231862,0.0002149151085321,0.0078290503822418,0.0060790273556231,0.0015658100764483,0.0,0.4399312271652697,Pet Lovers
237,277,Julia Beckett,female,0,0,1,1,3675.0,463.0,15.0,153.0,250.0,53.0,35.0,184.0,26.0,0.0,13808.0,72.0,2010,38.77457352296561,-9.154781980262351,1,0.1679930308533441,No Degree,0,53,18647.0,0.1970826406392449,0.0248297313240735,0.0082050732021236,0.0134069823564112,0.0028422802595591,0.0018769775298975,0.0098675390143186,0.0013943261650667,0.0,0.7404944495093044,Pet Lovers
238,278,Kathryn Thomas,female,0,0,1,1,13042.0,128.0,11.0,142.0,601.0,2.0,207.0,185.0,160.0,0.0,8748.0,39.0,2009,38.7150766998328,-9.142430559779635,1,0.2092690852506556,No Degree,0,50,23215.0,0.561791944863235,0.0055136765022614,0.0061167348696963,0.0258884342020245,8.615119534783545e-05,0.0089166487185009,0.0079689855696747,0.0068920956278268,0.0,0.3768253284514322,Pet Lovers
261,305,David Barth,male,0,0,1,1,9759.0,161.0,8.0,120.0,567.0,8.0,130.0,242.0,24.0,0.0,9142.0,120.0,2011,38.72905587387062,-9.166602996517868,1,0.267910403924126,No Degree,0,58,20153.0,0.4842455217585471,0.0079888850295241,0.0059544484692105,0.0281347690170198,0.0003969632312807,0.0064506525083114,0.0120081377462412,0.0011908896938421,0.0,0.4536297325460229,Pet Lovers
272,317,Lisa Jantzen,female,0,0,1,1,13741.0,176.0,7.0,159.0,338.0,20.0,159.0,125.0,186.0,0.0,13263.0,7.0,2009,38.78615920722666,-9.209574037148158,1,0.2274712419030331,No Degree,0,48,28167.0,0.4878403805872119,0.0062484467639436,0.0056449036106081,0.0119998579898462,0.0007100507686299,0.0056449036106081,0.0044378173039372,0.0066034721482586,0.0,0.470870167216956,Pet Lovers
273,318,Glenn Valez,male,0,0,0,1,6168.0,126.0,21.0,364.0,516.0,52.0,182.0,208.0,34.0,0.0,5303.0,56.0,2010,38.75211894061727,-9.140244595276494,1,0.2858625524504055,No Degree,0,53,12953.0,0.4761831236007102,0.0097274762603257,0.0281015980853856,0.0398363313518103,0.0040145140121979,0.0140507990426928,0.0160580560487917,0.0026248745464371,0.0,0.4094032270516483,Pet Lovers
276,321,Sarah Danger,female,0,0,0,1,18745.0,44.0,14.0,120.0,482.0,46.0,300.0,322.0,89.0,0.0,12933.0,14.0,2010,38.76989372523001,-9.14274935084103,1,0.2474155183012518,No Degree,0,43,33081.0,0.5666394607176325,0.0013300686194492,0.0036274598712251,0.0145702971494211,0.0013905262839696,0.0090686496780629,0.0097336839877875,0.0026903660711586,0.0,0.3909494876212931,Pet Lovers
302,352,Kristina Watkins,female,0,0,0,1,12959.0,147.0,10.0,122.0,461.0,67.0,347.0,356.0,48.0,0.0,9709.0,58.0,2013,38.777331289091286,-9.192302099925408,1,0.1864295731245986,No Degree,0,35,24216.0,0.5351420548397754,0.0060703666997026,0.0050379914106375,0.01903700033036,0.0027667657746944,0.0143293690122233,0.0147010241162867,0.0019821605550049,0.0,0.4009332672613148,Pet Lovers
303,354,Kelly Edmond,female,0,0,1,1,12476.0,631.0,12.0,242.0,538.0,6.0,225.0,138.0,0.0,0.0,7882.0,2.0,2008,38.72285126774358,-9.15039053993221,1,0.2534887539209757,No Degree,0,62,22138.0,0.5635558767729696,0.0285030264703225,0.0109314301201553,0.0243021049778661,0.0002710271930617,0.0101635197398138,0.0062336254404191,0.0,0.0,0.3560393892853916,Pet Lovers
336,390,Susan Martin,female,1,0,1,1,17342.0,265.0,13.0,261.0,455.0,69.0,238.0,149.0,128.0,0.0,10092.0,26.0,2012,38.75069524572453,-9.145361948357884,1,0.1152868272422322,No Degree,1,48,28999.0,0.598020621400738,0.0091382461464188,0.0090003103555295,0.0156901962136625,0.0023793923928411,0.0082071795579157,0.0051381082106279,0.0044139453084589,0.0,0.3480120004138073,Pet Lovers
342,397,Robin Brislin,female,0,0,1,1,8822.0,194.0,7.0,320.0,491.0,25.0,174.0,90.0,228.0,0.0,12709.0,95.0,2015,38.77342097134919,-9.160482980373654,1,0.20762400028851,No Degree,0,43,23053.0,0.3826833817724374,0.008415390621611,0.0138810566954409,0.0212987463670671,0.0010844575543313,0.007547824578146,0.0039040471955927,0.0098902528955016,0.0,0.5512948423198716,Pet Lovers
343,398,Carol Williams,female,0,0,0,1,11419.0,224.0,9.0,190.0,375.0,92.0,175.0,312.0,73.0,0.0,6028.0,70.0,2024,38.75637106721648,-9.159762763047214,1,0.3691198596671241,No Degree,0,23,18888.0,0.6045637441761965,0.0118593816179584,0.0100592969080897,0.019853875476493,0.0048708174502329,0.00926514188903,0.0165184243964421,0.0038648877594239,0.0,0.319144430326133,Pet Lovers
352,408,Ronald Rich,male,0,0,1,1,13561.0,326.0,12.0,291.0,591.0,3.0,167.0,263.0,5.0,0.0,12845.0,23.0,2012,38.74186554146533,-9.137843483588997,1,0.3173747749814336,No Degree,0,56,28052.0,0.4834236418080707,0.011621274775417,0.0103735919007557,0.0210680165407101,0.0001069442463995,0.0059532297162412,0.0093754456010266,0.0001782404106659,0.0,0.4578996150007129,Pet Lovers
357,415,Hugo Wood,male,0,0,0,1,4415.0,133.0,11.0,166.0,292.0,16.0,120.0,142.0,2.0,0.0,12668.0,75.0,2012,38.72079635667316,-9.200174492790056,1,0.2158294099935415,No Degree,0,61,17954.0,0.2459062047454606,0.0074078199844045,0.0092458505068508,0.0162637852289183,0.0008911663139133,0.00668374735435,0.0079091010359808,0.0001113957892391,0.0,0.7055809290408822,Pet Lovers
406,474,James Davis,male,0,0,0,1,4715.0,117.0,14.0,252.0,627.0,7.0,257.0,183.0,6.0,0.0,13062.0,79.0,2007,38.74733024397505,-9.17499249774372,1,0.2535928739628239,No Degree,0,71,19226.0,0.2452408197232913,0.0060855092062831,0.0131072505981483,0.0326120877977738,0.000364090294393,0.0133673150941433,0.0095183605534172,0.000312077395194,0.0,0.6793924893373556,Pet Lovers
408,476,Jennifer Degan,female,0,0,0,1,14678.0,231.0,7.0,182.0,433.0,21.0,362.0,246.0,52.0,0.0,12898.0,23.0,2007,38.72993995550438,-9.19998699205258,1,0.0837358812466446,No Degree,0,49,29103.0,0.5043466309315191,0.0079373260488609,0.0062536508263752,0.0148781912517609,0.0007215750953509,0.0124385802150981,0.0084527368312545,0.0017867573789643,0.0,0.4431845514208157,Pet Lovers
421,492,Myrtle Myers,female,0,0,1,1,9262.0,114.0,17.0,263.0,543.0,45.0,115.0,338.0,115.0,0.0,15004.0,65.0,2010,38.72139799002697,-9.188334269670026,1,0.391460657716441,No Degree,0,63,25799.0,0.3590061630295748,0.0044187759215473,0.0101941935733943,0.0210473274157913,0.0017442536532423,0.0044575371138416,0.0131012829954649,0.0044575371138416,0.0,0.5815729291833017,Pet Lovers
442,514,Kenneth Mccabe,male,0,0,0,1,12770.0,170.0,17.0,456.893937976519,519.0,65.0,116.0,218.0,53.0,0.0,6821.0,0.0,2009,38.72619107867005,-9.152574230219916,1,0.2331736270841545,No Degree,0,69,21188.89393797652,0.6026742140189078,0.0080230709775422,0.0215628970211434,0.0244939637490848,0.0030676447855308,0.0054745660787935,0.0102884086653188,0.0025013103635866,0.0,0.3219139243400916,Pet Lovers
445,518,Katherine Ellis,female,0,0,1,1,17765.0,119.0,7.0,287.0,221.0,38.0,276.0,184.0,0.0,0.0,13433.0,43.0,2010,38.7857491676778,-9.142452024652922,1,0.1508747618559949,No Degree,0,48,32323.0,0.5496086378120842,0.0036815889614206,0.0088791263187204,0.0068372366426383,0.0011756334498654,0.0085388113727067,0.0056925409151378,0.0,0.0,0.4155864245274263,Pet Lovers
447,520,Thomas Sherburne,male,0,0,1,1,8755.0,47.0,10.0,162.0,604.0,4.0,233.0,370.0,0.0,0.0,11869.0,53.0,2016,38.71623442575172,-9.193477516310594,1,0.1194424852998607,No Degree,0,59,22044.0,0.3971602250045364,0.0021320994374886,0.007348938486663,0.0273997459626202,0.0001814552712756,0.0105697695518054,0.0167846125929958,0.0,0.0,0.5384231536926147,Pet Lovers
448,521,Bonnie Klitz,female,0,0,0,1,11789.0,48.0,8.0,70.0,557.0,3.0,324.0,150.0,34.0,0.0,9794.0,24.0,2011,38.72322509769322,-9.177762060171656,1,0.2256869372403981,No Degree,0,58,22769.0,0.5177653827572577,0.0021081294742852,0.0030743554833326,0.0244630857745179,0.0001317580921428,0.0142298739514251,0.0065879046071412,0.0014932583776186,0.0,0.4301462514822785,Pet Lovers
449,522,Sherri Kohm,female,0,0,0,1,16496.0,148.0,13.52057966862436,136.0,307.0,23.0,244.0,148.0,202.0,0.0,7717.0,40.0,2008,38.747596856258674,-9.149954214512896,1,0.1489921130459879,No Degree,0,76,25421.0,0.6489123165886472,0.0058219582235159,0.0053499075567444,0.0120766295582392,0.0009047637779788,0.0095983635576885,0.0058219582235159,0.007946186223988,0.0,0.3035679162896817,Pet Lovers
455,530,Richard Armstrong,male,0,0,0,1,14642.0,533.0,9.0,240.0,537.0,49.0,27.0,121.0,12.0,0.0,16025.0,80.0,2013,38.734502636489296,-9.19321269578542,1,0.2556440249712427,No Degree,0,53,32186.0,0.4549182874541726,0.0165599950288945,0.0074566581743615,0.0166842726651339,0.0015224010439321,0.0008388740446156,0.0037593984962406,0.000372832908718,0.0,0.4978872801839309,Pet Lovers
469,545,Cortney Lobb,female,0,0,0,1,7497.0,59.0,8.0,259.0,473.0,87.0,254.0,152.0,71.0,0.0,11223.0,48.0,2014,38.76682089655497,-9.190362816875563,1,0.0951690076104962,No Degree,0,35,20075.0,0.3734495641344956,0.0029389788293897,0.0129016189290161,0.0235616438356164,0.0043337484433374,0.0126525529265255,0.007571606475716,0.0035367372353673,0.0,0.5590535491905355,Pet Lovers
472,548,Maria Wilson,female,0,0,0,1,6298.0,5.0,10.0,262.0,509.0,21.0,247.0,104.0,54.0,0.0,6818.0,4.0,2010,38.75848628192558,-9.159145223405217,1,0.3299384481951276,No Degree,0,82,14318.0,0.4398659030590864,0.0003492107836289,0.0182986450621595,0.035549657773432,0.0014666852912417,0.0172510127112725,0.0072635842994831,0.0037714764631931,0.0,0.4761838245565023,Pet Lovers
477,553,Scott White,male,0,0,0,1,1418.0,146.0,17.0,192.0,539.0,45.0,199.0,244.0,52.0,0.0,9136.0,58.0,2007,38.73783776458123,-9.181684465803292,1,0.2396608907133927,No Degree,0,58,11971.0,0.1184529279091136,0.0121961406732937,0.0160387603374822,0.0450254782390777,0.0037590844540974,0.0166235068081196,0.020382591262217,0.0043438309247347,0.0,0.7631776793918637,Pet Lovers
480,556,Laura Phillips,female,0,0,0,1,9354.0,267.0,17.0,318.0,329.0,30.0,157.0,133.0,141.0,0.0,5842.0,66.0,2016,38.78824091710228,-9.149932682810636,1,0.1417902386400118,No Degree,0,70,16571.0,0.5644801158650655,0.0161124856677327,0.0191901514694345,0.0198539617403898,0.0018103916480598,0.0094743829581799,0.008026069639732,0.0085088407458813,0.0,0.3525436002655241,Pet Lovers
517,601,Leola Thorpe,female,0,0,1,1,11939.0,28.0,13.0,271.0,424.0,99.0,112.0,112.0,17.0,0.0,5383.0,34.0,2012,38.73783614318349,-9.16044098261336,1,0.1996531434386678,No Degree,0,63,18385.0,0.6493880881153113,0.0015229806907805,0.0147402774000543,0.0230622790318194,0.0053848245852597,0.0060919227631221,0.0060919227631221,0.0009246668479738,0.0,0.2927930378025564,Pet Lovers
518,602,Mildred Reeves,female,0,0,1,1,12843.0,182.0,14.0,163.0,665.0,152.0,274.0,170.0,78.0,0.0,15253.0,22.0,2010,38.7614439753626,-9.184291926152143,1,0.0788468121945016,No Degree,0,58,29780.0,0.4312625923438549,0.0061114842175957,0.0054734721289456,0.0223304231027535,0.0051040967092008,0.0092008059100067,0.0057085292142377,0.0026192075218267,0.0,0.5121893888515783,Pet Lovers
553,641,Thomas Howser,male,0,0,0,1,14628.0,24.0,12.0,305.0,664.0,68.0,49.0,218.0,84.0,0.0,11395.0,91.0,2004,38.7585915146948,-9.186682963688677,1,0.1053883937205369,No Degree,0,69,27435.0,0.5331875341716785,0.0008747949699289,0.01111718607618,0.0242026608347002,0.0024785857481319,0.0017860397302715,0.0079460543101877,0.0030617823947512,0.0,0.4153453617641698,Pet Lovers
576,666,Alana Mayo,female,0,0,0,1,12408.0,92.0,10.0,456.893937976519,627.0,13.0,140.0,148.0,41.0,0.0,9945.0,37.0,2006,38.747043422840186,-9.197790993286045,1,0.1055410506145839,No Degree,0,59,23870.89393797652,0.519796201693978,0.0038540659700069,0.0191402106332365,0.0262662974260254,0.0005445962783705,0.0058648829978366,0.0062000191691415,0.0017175728779378,0.0,0.4166161529534664,Pet Lovers
578,668,John Hamer,male,0,0,0,1,5022.0,311.0,15.0,246.0,612.0,14.0,35.0,255.0,40.0,0.0,5500.0,61.0,2009,38.756115598495214,-9.206944782069002,1,0.1876053435211263,No Degree,0,60,12035.0,0.4172829248026589,0.0258412962193602,0.0204403822185292,0.0508516825924387,0.0011632737847943,0.0029081844619858,0.0211882010801828,0.0033236393851267,0.0,0.4570004154549231,Pet Lovers
586,677,Beverly Koziel,female,0,0,1,1,10220.0,149.0,8.0,63.0,432.0,116.0,132.0,47.0,131.0,0.0,4090.0,73.0,2016,38.73254121334672,-9.180793491579408,1,0.2195886226137419,No Degree,0,70,15380.0,0.6644993498049415,0.0096879063719115,0.0040962288686605,0.0280884265279583,0.0075422626788036,0.0085825747724317,0.0030559167750325,0.0085175552665799,0.0,0.2659297789336801,Pet Lovers
600,697,Linda Hight,female,0,0,1,1,14710.0,317.0,15.0,96.0,515.0,24.0,298.0,140.0,46.0,0.0,10515.0,38.0,2008,38.7469874126013,-9.155884334826291,1,0.2461142287601571,No Degree,0,43,26661.0,0.5517422452271108,0.011890026630659,0.003600765162597,0.0193166047785154,0.0009001912906492,0.0111773751922283,0.0052511158621207,0.001725366640411,0.0,0.3943963092157083,Pet Lovers
602,699,Jodi Cardenas,female,0,0,0,1,14671.0,146.0,17.0,182.0,572.0,15.0,344.0,228.0,69.0,0.0,7000.0,5.0,2011,38.77985160670119,-9.20900810379042,1,0.107392262634936,No Degree,0,44,23227.0,0.6316355965040685,0.0062857880914453,0.0078357084427605,0.0246265122486761,0.0006458001463813,0.0148103500236793,0.0098161622249967,0.0029706806733542,0.0,0.3013734016446377,Pet Lovers
608,706,Jay Shoemaker,male,0,0,0,1,9634.0,150.0,17.0,343.0,573.0,21.0,327.0,81.0,136.0,0.0,13823.0,82.0,2012,38.743424919496206,-9.140854177155145,1,0.0528756169056993,No Degree,0,52,25088.0,0.3840082908163265,0.0059789540816326,0.013671875,0.0228396045918367,0.0008370535714285,0.0130341198979591,0.0032286352040816,0.0054209183673469,0.0,0.5509805484693877,Pet Lovers
611,710,Charles Costa,male,0,0,0,1,7224.0,143.0,14.0,177.0,386.0,6.0,87.0,7.0,14.0,0.0,13359.0,8.0,2010,38.778963034587015,-9.207247648558312,1,0.2773398534010606,No Degree,0,77,21403.0,0.337522777180769,0.0066813063589216,0.0082698687099939,0.0180348549268794,0.0002803345325421,0.0040648507218614,0.0003270569546325,0.000654113909265,0.0,0.6241648367051348,Pet Lovers
620,719,Leo Owens,male,0,0,1,1,10409.0,133.0,14.0,310.0,586.0,65.0,9.0,251.0,43.0,0.0,4285.0,53.0,2006,38.7201899120048,-9.173542817644664,1,0.397128440626844,No Degree,0,66,16091.0,0.64688335094152,0.00826549002548,0.0192654278789385,0.0364178733453483,0.0040395252004225,0.0005593188739046,0.0155987819277857,0.0026723012864334,0.0,0.2662979305201665,Pet Lovers
661,767,Kathy Price,female,0,0,1,1,12631.0,6.0,16.0,95.0,564.0,29.0,54.0,346.0,153.0,0.0,14374.0,53.0,2006,38.715312356752925,-9.148329229288183,1,0.3006914544836823,No Degree,0,59,28252.0,0.447083392326207,0.0002123743451791,0.0033625937986691,0.0199631884468356,0.0010264760016989,0.0019113691066119,0.0122469205719949,0.0054155458020671,0.0,0.5087781396007363,Pet Lovers
662,768,Martha Seals,female,0,0,0,1,21107.0,57.0,14.0,199.0,388.0,9.0,339.0,126.0,43.0,0.0,9030.0,63.0,2005,38.75131076659218,-9.146639010276209,1,0.1713368992664734,No Degree,0,40,31298.0,0.6743881398172408,0.001821202632756,0.0063582337529554,0.012396958272094,0.0002875583104351,0.0108313630263914,0.0040258163460924,0.0013738897054124,0.0,0.2885168381366221,Pet Lovers
694,806,Marcia Williams,female,0,0,1,1,9055.0,64.0,9.0,241.0,468.0,10.0,248.0,136.0,51.0,0.0,11620.0,77.0,2010,38.7442552343832,-9.210027983792154,1,0.2753962521861109,No Degree,0,56,21893.0,0.4136025213538574,0.0029233088201708,0.0110080847759557,0.0213766957474992,0.0004567670031516,0.0113278216781619,0.006212031242863,0.0023295117160736,0.0,0.5307632576622665,Pet Lovers
707,822,Gladys Thompson,female,0,0,0,1,13716.0,371.0,12.0,102.0,588.0,65.0,214.0,175.0,101.0,0.0,11808.0,57.0,2011,38.71368995221574,-9.202672646347528,1,0.432362802148353,No Degree,0,42,27140.0,0.505379513633014,0.0136698599852616,0.0037582903463522,0.021665438467207,0.0023949889462048,0.0078850405305821,0.0064480471628592,0.0037214443625644,0.0,0.4350773765659543,Pet Lovers
720,837,Jesse Wolfe,male,0,0,1,1,13661.0,516.0,16.0,202.0,513.0,38.0,127.0,328.0,49.0,0.0,13727.0,39.0,2021,38.77923118959162,-9.200957010274491,1,0.2412203646037628,No Degree,0,25,29161.0,0.4684681595281369,0.0176948664311923,0.0069270601145365,0.0175919893007784,0.0013031103185761,0.0043551318541888,0.0112478995919207,0.0016803264634271,0.0,0.4707314563972429,Pet Lovers
744,866,Molly Peterson,female,0,0,1,1,10425.0,176.0,14.0,73.0,389.0,35.0,256.0,70.0,55.0,0.0,6459.0,94.0,2004,38.71821539979832,-9.173053380307165,1,0.0160104146619644,No Degree,0,62,17938.0,0.581168469171591,0.0098115731965659,0.0040695729735756,0.0216858066674099,0.001951165124317,0.014271379195005,0.0039023302486341,0.0030661166239268,0.0,0.3600735867989742,Pet Lovers
759,883,Jean Speer,female,0,0,1,1,14471.0,223.0,18.0,190.0,442.0,5.0,1.0,255.0,147.0,0.0,12622.0,86.0,2011,38.76333261721508,-9.199612063223512,1,0.0595753063219492,No Degree,0,53,28356.0,0.5103329101424743,0.0078642967978558,0.0067005219353928,0.0155875299760191,0.0001763295246156,3.5265904923120326e-05,0.0089928057553956,0.0051840880236986,0.0,0.4451262519396248,Pet Lovers
760,884,Barbara Waldrop,female,0,0,1,1,12198.0,276.0,17.0,182.0,453.0,38.0,259.0,244.0,9.0,0.0,11998.0,31.0,2012,38.77205624160823,-9.205091628618172,1,0.2554181697404359,No Degree,0,66,25657.0,0.4754258097205441,0.0107572982032193,0.0070935806992243,0.0176560003118057,0.001481077288849,0.01009471099505,0.0095100752231359,0.0003507814631484,0.0,0.4676306660950228,Pet Lovers
767,893,John Henderson,male,0,0,1,1,6293.0,343.0,10.0,210.0,590.0,0.0,201.0,222.0,16.0,0.0,11843.0,61.0,2014,38.74546086808624,-9.200113674679264,1,0.3351522732594119,No Degree,0,83,19718.0,0.3191500152145248,0.0173952733542955,0.0106501673597727,0.029921898772695,0.0,0.0101937316157825,0.0112587483517598,0.0008114413226493,0.0,0.6006187240085201,Pet Lovers
773,900,Mavis Dennis,female,0,0,1,1,10375.0,187.0,15.0,246.0,406.0,6.0,254.0,140.0,107.0,0.0,7301.0,46.0,2009,38.75649838637637,-9.192422311011294,1,0.3830552529168245,No Degree,0,44,19022.0,0.5454210913678899,0.0098307223215224,0.0129323940700241,0.0213437072863,0.0003154242456103,0.0133529597308379,0.0073598990642414,0.0056250657133845,0.0,0.3838187362001892,Pet Lovers
805,935,Gladys Hill,female,0,0,1,1,10584.0,533.0,11.0,214.0,429.0,7.0,254.0,212.0,135.0,0.0,13973.0,0.0,2007,38.78585076847992,-9.139515623400625,1,0.0397301428079105,No Degree,0,81,26341.0,0.4018070688280627,0.0202346152386014,0.0081242170001138,0.0162863976310694,0.0002657454158915,0.00964276223378,0.0080482897384305,0.0051250901636232,0.0,0.5304658137504271,Pet Lovers
818,950,Shelia Ellis,female,0,0,0,1,6107.0,216.0,11.0,364.0,582.0,44.0,243.0,174.0,2.0,0.0,9041.0,31.0,2008,38.76134880340391,-9.189101147116595,1,0.2563104280807068,No Degree,0,81,16773.0,0.3640970607523996,0.0128778393847254,0.0217015441483336,0.0346986227866213,0.0026232635783699,0.0144875693078161,0.0103738150599177,0.0001192392535622,0.0,0.5390210457282537,Pet Lovers
819,951,Roy Gill,male,0,0,0,1,10071.0,166.0,17.0,343.0,552.0,35.0,183.0,211.0,114.0,0.0,10907.0,11.0,2018,38.768119261343855,-9.176483167710424,1,0.2534887539209757,No Degree,0,46,22582.0,0.4459746700912231,0.0073509875121778,0.0151890886546807,0.0244442476308564,0.0015499070055796,0.0081037994863165,0.0093437250907802,0.0050482685324594,0.0,0.4829953059959259,Pet Lovers
833,966,Richard Rich,male,0,0,0,1,9958.0,32.0,15.0,100.0,352.0,54.0,139.0,160.0,190.0,0.0,7888.0,58.0,2011,38.7531167087254,-9.172329395131335,1,0.1102540128575956,No Degree,0,75,18873.0,0.527632066973984,0.0016955438986912,0.0052985746834101,0.0186509828856037,0.0028612303290414,0.0073650188099401,0.0084777194934562,0.0100672918984793,0.0,0.4179515710273936,Pet Lovers
839,972,Leland Garcia,male,0,0,1,1,5004.0,231.0,10.0,215.0,398.0,3.0,114.0,274.0,13.0,0.0,9938.0,32.0,2016,38.77566947817509,-9.1511569407542,1,0.1829945395743758,No Degree,0,37,16190.0,0.3090796788140827,0.0142680667078443,0.0132798023471278,0.0245830759728227,0.0001852995676343,0.007041383570105,0.0169240271772699,0.0008029647930821,0.0,0.6138357010500309,Pet Lovers
843,976,Evelyn Schultz,female,0,0,1,1,9079.0,101.0,11.0,276.0,549.0,0.0,189.0,230.0,36.0,0.0,6737.0,18.0,2006,38.75856182640181,-9.202974362767677,1,0.3119685752043448,No Degree,0,69,17197.0,0.5279409199278944,0.0058731174041984,0.0160493109263243,0.0319241728208408,0.0,0.010990289003896,0.0133744257719369,0.0020933883816944,0.0,0.3917543757632145,Pet Lovers
847,981,Frederick Cook,male,0,0,0,1,978.0,291.0,14.0,262.0,430.0,12.0,241.0,426.0,34.0,0.0,9344.0,9.0,2007,38.77869925039876,-9.18471168554112,1,0.2454447396943421,No Degree,0,68,12018.0,0.0813779331003494,0.0242136794807788,0.0218006323847562,0.0357796638375769,0.00099850224663,0.0200532534531536,0.0354468297553669,0.0028290896987851,0.0,0.7775004160426028,Pet Lovers
869,1007,Kari Sadler,female,0,0,0,1,15460.0,65.0,17.0,189.0,478.0,110.0,204.0,337.0,327.0,0.0,9063.0,32.0,2010,38.76173485710591,-9.181318669466627,1,0.109931640480645,No Degree,0,79,26233.0,0.589334044905272,0.0024777951435215,0.0072046658788548,0.0182213242862043,0.0041931917813441,0.007776464758129,0.0128464148210269,0.0124652155681774,0.0,0.3454808828574696,Pet Lovers
873,1011,Lucie Lee,female,0,0,0,1,7214.0,248.0,6.0,287.0,565.0,3.0,45.0,73.0,93.0,0.0,11704.0,61.0,2007,38.72770661449926,-9.14390156245945,1,0.3256143313108484,No Degree,0,74,20232.0,0.3565638592328984,0.0122578094108343,0.0141854487939897,0.0279260577303281,0.0001482799525504,0.0022241992882562,0.0036081455120601,0.0045966785290628,0.0,0.5784895215500198,Pet Lovers
874,1012,Mario Smith,male,0,0,0,1,3613.0,134.0,6.0,182.0,485.0,3.0,184.0,317.0,96.0,0.0,4112.0,86.0,2010,38.75349048441416,-9.170396943619917,1,0.2375917722909548,No Degree,0,45,9126.0,0.395901818978742,0.01468332237563,0.0199430199430199,0.0531448608371685,0.0003287310979618,0.0201621740083278,0.0347359193513039,0.0105193951347797,0.0,0.450580758273066,Pet Lovers
911,1052,Margarita Portela,female,0,0,0,1,8745.0,165.0,17.0,211.0,465.0,55.0,311.0,169.0,42.0,0.0,5476.0,70.0,2010,38.766689625804354,-9.144044807904342,1,0.2738067982948683,No Degree,0,35,15639.0,0.5591789756378285,0.0105505467101477,0.0134919112475222,0.0297333589104162,0.0035168489033825,0.019886181980945,0.0108063175394846,0.0026855937080375,0.0,0.3501502653622354,Pet Lovers
922,1065,Ellen Boone,female,0,0,1,1,4635.0,228.0,14.0,392.0,534.0,56.0,186.0,234.0,87.0,0.0,10969.0,82.0,2007,38.70847431548562,-9.165692147382678,1,0.181799253547818,No Degree,0,77,17321.0,0.2675942497546331,0.0131632122856648,0.0226314877893886,0.0308296287743201,0.0032330696841983,0.010738410022516,0.0135096126089717,0.005022804687951,0.0,0.6332775243923561,Pet Lovers
923,1066,Jose Kierzewski,male,0,0,0,1,11311.0,371.0,19.0,385.0,620.0,51.0,326.0,248.0,21.0,0.0,12083.0,59.0,2014,38.773245261737976,-9.202966260567166,1,0.1086980818783482,No Degree,0,28,25416.0,0.4450346238589864,0.0145971041863393,0.0151479383065785,0.0243940824677368,0.0020066100094428,0.0128265659427132,0.0097576329870947,0.0008262511803588,0.0,0.4754091910607491,Pet Lovers
925,1068,Thomas Applewhite,male,0,0,0,1,3139.0,140.0,17.0,116.0,560.0,102.0,256.0,386.0,46.0,0.0,8286.0,42.0,2008,38.716244043036816,-9.208187908813937,1,0.3444997782017583,No Degree,0,38,13031.0,0.2408871153403422,0.010743611388228,0.0089018494359604,0.0429744455529122,0.0078274882971375,0.0196454608241884,0.0296216713989716,0.0035300437418463,0.0,0.6358683140204129,Pet Lovers
944,1089,Elva Langdon,female,0,0,1,1,6611.0,68.0,8.0,152.0,319.0,78.0,101.0,218.0,36.0,0.0,9000.0,108.0,2013,38.7601353867568,-9.138680861611304,1,0.1255154473172488,No Degree,0,29,16583.0,0.398661279623711,0.0041005849363806,0.0091660133872037,0.0192365675691973,0.0047036121329071,0.0060905746849182,0.013145992884279,0.0021708979074956,0.0,0.542724476873907,Pet Lovers
946,1091,Madeline Shaw,female,0,0,1,1,9282.0,118.0,13.0,263.0,529.0,61.0,176.0,54.0,77.0,0.0,11807.0,18.0,2012,38.730250032005486,-9.178944551374496,1,0.2340942173305897,No Degree,0,71,22367.0,0.4149863638395851,0.0052756292752716,0.0117583940626816,0.0236509142933786,0.0027272320829793,0.0078687351902356,0.0024142710242768,0.003442571645728,0.0,0.5278758885858631,Pet Lovers
981,1131,Valerie Harmon,female,0,0,1,1,5068.0,80.0,8.0,209.0,481.0,97.0,320.0,192.0,70.0,0.0,7371.0,38.0,2007,38.73142492688294,-9.13893233865593,1,0.1907336491395437,No Degree,0,48,13888.0,0.3649193548387097,0.0057603686635944,0.0150489631336405,0.0346342165898617,0.0069844470046082,0.0230414746543778,0.0138248847926267,0.0050403225806451,0.0,0.5307459677419355,Pet Lovers
992,1143,Mary Rivera,female,0,0,1,1,6365.0,274.0,8.0,194.0,429.0,76.0,298.0,147.0,147.0,0.0,11602.0,41.0,2013,38.73428679887252,-9.1508311878117,1,0.3250179095420437,No Degree,0,50,19532.0,0.3258754863813229,0.0140282613147655,0.0099324185951259,0.0219639565840671,0.0038910505836575,0.0152570141306573,0.0075261109973377,0.0075261109973377,0.0,0.593999590415728,Pet Lovers
1002,1155,Philip Curran,male,0,0,0,1,10124.0,77.0,13.0,217.0,494.0,9.0,209.0,83.0,57.0,0.0,10257.0,17.0,2013,38.779539978550304,-9.141993753187329,1,0.1128136940811549,No Degree,0,32,21527.0,0.470293120267571,0.0035769034236075,0.0100803641938031,0.0229479258605472,0.0004180796209411,0.0097087378640776,0.0038556231709016,0.0026478375992939,0.0,0.4764714079992567,Pet Lovers
1004,1158,Shirley Latimore,female,0,0,0,1,9524.0,33.0,12.0,256.0,469.0,8.0,375.0,267.0,67.0,0.0,1183.0,52.0,2008,38.71027710176581,-9.187403656300829,1,0.2327619841045139,No Degree,0,56,12182.0,0.7818092267279593,0.0027089147923165,0.0210146117222131,0.0384994253817107,0.0006567066163191,0.0307831226399605,0.0219175833196519,0.0054999179116729,0.0,0.0971104908881957,Pet Lovers
1034,1190,Kyle Goree,male,0,0,1,1,5446.0,124.0,7.0,97.0,471.0,91.0,227.0,233.0,71.0,0.0,12149.0,79.0,2008,38.7694550579443,-9.149490392380734,1,0.1867958084346577,No Degree,0,71,18909.0,0.2880110000528849,0.0065577238352107,0.0051298323549632,0.024908773599873,0.0048125231371304,0.0120048654080067,0.0123221746258395,0.0037548257443545,0.0,0.6424982812417367,Pet Lovers
1052,1211,Thomas Turner,male,0,0,1,1,10128.0,197.0,9.0,292.0,464.0,32.0,187.0,201.0,11.0,0.0,364.0,72.0,2013,38.74442094019726,-9.204045626846382,1,0.0904417628596951,No Degree,0,40,11876.0,0.8528123947457056,0.0165880767935331,0.0245874031660491,0.0390703940720781,0.0026945099360053,0.0157460424385314,0.0169248905355338,0.0009262377905018,0.0,0.0306500505220613,Pet Lovers
1058,1218,Juan Sanchez,male,0,0,0,1,13050.0,9.0,13.0,127.0,603.0,13.0,274.0,238.0,81.0,0.0,10960.0,17.0,2011,38.78647458979659,-9.210235957589946,1,0.2014093106733762,No Degree,0,79,25355.0,0.5146913823703412,0.0003549595740485,0.0050088739893512,0.0237822914612502,0.0005127193847367,0.0108065470321435,0.0093867087359495,0.0031946361664366,0.0,0.4322618812857424,Pet Lovers
1069,1234,David Sterling,male,0,0,1,1,6823.0,123.0,13.52057966862436,219.0,504.0,36.0,200.0,124.0,101.0,0.0,8401.0,23.0,2012,38.78812855581874,-9.198274178213753,1,0.0022021142314228,No Degree,0,60,16531.0,0.4127397011675034,0.0074405662089407,0.0132478373964067,0.0304881737341963,0.0021777266952997,0.0120984816405541,0.0075010586171435,0.0061097332284798,0.0,0.5081967213114754,Pet Lovers
1077,1242,Walter Gills,male,0,0,0,1,19429.0,45.0,12.0,221.0,372.0,11.0,445.0,304.0,90.0,0.0,9186.0,48.0,2009,38.78000973578671,-9.158063952637022,1,0.3836525566871434,No Degree,0,41,30103.0,0.6454174002591104,0.0014948676211673,0.007341460983955,0.0123575723349832,0.0003654120851742,0.0147825798093213,0.010098661262997,0.0029897352423346,0.0,0.3051523104009567,Pet Lovers
1096,1264,Donna Simmons,female,0,0,1,1,11105.0,15.0,8.0,172.0,511.0,9.0,206.0,239.0,158.0,0.0,10775.0,30.0,2013,38.734285079208895,-9.160295322482204,1,0.0888338237942723,No Degree,0,73,23190.0,0.4788702026735661,0.000646830530401,0.0074169900819318,0.0220353600689952,0.0003880983182406,0.0088831392841742,0.0103061664510564,0.0068132815868909,0.0,0.4646399310047434,Pet Lovers
1097,1265,Charlotte Ramsey,female,0,0,0,1,5543.0,28.0,10.0,82.0,641.0,26.0,217.0,208.0,167.0,0.0,11144.0,47.0,2018,38.71796534120946,-9.21148954025651,1,0.0301621169927476,No Degree,0,67,18056.0,0.3069893664155959,0.0015507310589277,0.0045414266725742,0.0355006645990252,0.0014399645547186,0.0120181657066902,0.0115197164377492,0.0092490031014621,0.0,0.6171909614532566,Pet Lovers
1139,1313,Maxwell Loree,male,0,0,0,1,16180.0,59.0,11.0,153.0,562.0,82.0,303.0,185.0,65.0,0.0,8399.0,53.0,2008,38.75800867199326,-9.147416413791536,1,0.287824926623076,No Degree,0,67,25988.0,0.6225950438663999,0.0022702785901185,0.0058873326150531,0.0216253655533323,0.0031553024472833,0.0116592273356933,0.0071186701554563,0.0025011543789441,0.0,0.323187625057719,Pet Lovers
1143,1317,Shirley Thompson,female,0,0,0,1,12704.0,390.0,8.0,109.0,473.0,39.0,84.0,219.0,128.0,0.0,7115.0,78.0,2012,38.73508964748164,-9.195284927245703,1,0.2063150788146841,No Degree,0,36,21261.0,0.5975259865481398,0.0183434457457316,0.0051267579135506,0.0222473072762334,0.0018343445745731,0.0039508960067729,0.0103005503033723,0.0060204129627016,0.0,0.3346502986689243,Pet Lovers
1154,1328,Stacey Kosiorek,female,0,0,0,1,7975.0,249.0,8.0,241.0,741.0,28.0,10.0,76.0,18.0,0.0,14808.0,82.0,2009,38.7706609640607,-9.169271439286495,1,0.149832681519685,No Degree,0,70,24146.0,0.3302824484386648,0.0103122670421601,0.0099809492255446,0.0306883127640188,0.0011596123581545,0.0004141472707694,0.003147519257848,0.000745465087385,0.0,0.6132692785554543,Pet Lovers
1188,1363,Catherine Mercer,female,0,0,0,1,4829.0,101.0,15.0,54.0,538.0,22.0,135.0,111.0,58.0,0.0,12393.0,27.0,2010,38.75685552594094,-9.134869792828187,1,0.3167632795752969,No Degree,0,82,18241.0,0.264733293130859,0.0055369771394112,0.0029603640151307,0.0294939970396359,0.0012060742283866,0.0074009100378268,0.0060851926977687,0.0031796502384737,0.0,0.679403541472507,Pet Lovers
1202,1380,Kelly Linville,female,0,0,1,1,16561.0,249.0,10.0,160.0,392.0,12.0,256.0,134.0,52.0,0.0,4414.0,37.0,2008,38.74839829587479,-9.212752565968264,1,0.2055331056816886,No Degree,0,44,22230.0,0.7449842555105713,0.0112010796221322,0.0071974808816914,0.0176338281601439,0.0005398110661268,0.0115159694107062,0.0060278902384165,0.0023391812865497,0.0,0.1985605038236617,Pet Lovers
1206,1384,Michael Diller,male,0,0,1,1,14419.0,134.0,14.0,258.0,379.0,37.0,322.0,31.0,69.0,0.0,9853.0,121.0,2008,38.76588633900767,-9.171708204494342,1,0.2433376400996818,No Degree,0,81,25502.0,0.5654066347737432,0.0052544898439338,0.0101168535801113,0.014861579483962,0.0014508665986981,0.0126264606697513,0.0012155909340443,0.0027056701435181,0.0,0.3863618539722375,Pet Lovers
1231,1412,Harold Stoner,male,0,0,0,1,13464.0,91.0,11.0,111.0,448.0,45.0,97.0,172.0,111.0,0.0,10941.0,55.0,2015,38.74191101807473,-9.185905812045464,1,0.1798189990667149,No Degree,0,73,25480.0,0.528414442700157,0.0035714285714285,0.0043563579277864,0.0175824175824175,0.0017660910518053,0.0038069073783359,0.0067503924646781,0.0043563579277864,0.0,0.4293956043956043,Pet Lovers
1232,1413,Armando Mash,male,0,0,1,1,15679.0,502.0,7.0,165.0,477.0,105.0,185.0,234.0,8.0,0.0,8775.0,56.0,1999,38.72878126285931,-9.180370117675364,1,0.3465362598538932,No Degree,0,45,26130.0,0.6000382701875239,0.0192116341370072,0.0063145809414466,0.0182548794489093,0.0040183696900114,0.0070799846919249,0.008955223880597,0.0003061615001913,0.0,0.3358208955223881,Pet Lovers
1257,1445,Ryan Alvarez,male,0,0,0,1,10765.0,252.0,6.0,342.0,402.0,31.0,46.0,185.0,85.0,0.0,9608.0,6.0,2014,38.74922747948925,-9.167674801428529,1,0.1903795295005596,No Degree,0,32,21716.0,0.4957174433597348,0.0116043470252348,0.0157487566771044,0.0185116964450175,0.0014275188800884,0.0021182538220666,0.0085190642843986,0.0039141646712101,0.0,0.4424387548351446,Pet Lovers
1259,1447,Thomas Shook,male,0,0,0,1,7840.0,53.0,17.0,239.0,634.0,60.0,131.0,49.0,81.0,0.0,9823.0,17.0,2013,38.75255530506703,-9.151337447971164,1,0.2207956909507427,No Degree,0,77,18910.0,0.4145954521417239,0.0028027498677948,0.0126388154415653,0.0335272342675832,0.0031729243786356,0.0069275515600211,0.0025912215758857,0.0042834479111581,0.0,0.5194606028556319,Pet Lovers
1279,1472,Michelle Barnhill,female,0,0,1,1,11091.0,113.0,15.0,469.0,474.0,17.0,16.0,256.0,26.0,0.0,10986.0,48.0,2011,38.75791629403173,-9.171046046821656,1,0.0559710500818737,No Degree,0,59,23448.0,0.4730040941658137,0.0048191743432275,0.0200017059024223,0.02021494370522,0.0007250085295121,0.0006823609689525,0.0109177755032412,0.0011088365745479,0.0,0.4685261003070624,Pet Lovers
1288,1481,Patrick Taylor,male,0,0,0,1,2289.0,261.0,9.0,260.0,660.0,89.0,208.0,178.0,45.0,0.0,9361.0,50.0,2012,38.729671689152966,-9.154593369898231,1,0.160294715722527,No Degree,0,36,13351.0,0.1714478316230994,0.0195490974458842,0.0194741966893865,0.0494344992884428,0.00666616732829,0.0155793573515092,0.01333233465658,0.0033705340423938,0.0,0.7011459815744139,Pet Lovers
1294,1489,Yvonne Clough,female,0,0,0,1,3652.0,193.0,11.0,304.0,688.0,43.0,314.0,255.0,113.0,0.0,10009.0,58.0,2013,38.72963635762412,-9.189981828061956,1,0.2628496418143286,No Degree,0,53,15571.0,0.2345385652816132,0.0123948365551345,0.0195234731231134,0.0441847023312568,0.0027615438957035,0.0201656926337422,0.0163765975210326,0.0072570804701046,0.0,0.6427975081882987,Pet Lovers
1312,1509,Laura Armijo,female,0,0,1,1,9074.0,62.0,17.0,261.0,427.0,60.0,155.0,167.0,105.0,0.0,9253.0,7.0,2011,38.71159243549624,-9.156592214721073,1,0.3238902879154713,No Degree,0,50,19564.0,0.4638110815784093,0.0031690860764669,0.0133408300960948,0.0218258024943774,0.0030668574933551,0.0079227151911674,0.0085360866898384,0.0053670006133714,0.0,0.4729605397669188,Pet Lovers
1316,1514,Arthur Rhodes,male,0,0,0,1,17702.0,310.0,14.0,96.0,663.0,3.0,249.0,79.0,31.0,0.0,8156.0,29.0,2012,38.749188012144565,-9.162788506837508,1,0.3686801578795168,No Degree,0,56,27289.0,0.6486862838506358,0.0113598885998021,0.0035179009857451,0.0242955036828025,0.0001099344058045,0.0091245556817765,0.0028949393528527,0.0011359888599802,0.0,0.2988750045806002,Pet Lovers
1319,1518,Dorothy Hill,female,0,0,1,1,14081.0,58.0,10.0,300.0,560.0,43.0,272.0,104.0,60.0,0.0,9422.0,70.0,2006,38.78626398596948,-9.167307323602104,1,0.0091607871200045,No Degree,0,66,24900.0,0.5655020080321285,0.0023293172690763,0.0120481927710843,0.0224899598393574,0.001726907630522,0.0109236947791164,0.0041767068273092,0.0024096385542168,0.0,0.3783935742971887,Pet Lovers
1323,1522,Lowell Albert,male,0,0,0,1,6843.0,316.0,15.0,140.0,443.0,7.0,138.0,133.0,12.0,0.0,7380.0,1.0,2018,38.71570526365868,-9.170538189916742,1,0.2428872287077398,No Degree,0,84,15412.0,0.4440046716844018,0.0205035037633013,0.0090838307812094,0.0287438359719698,0.0004541915390604,0.0089540617700493,0.0086296392421489,0.0007786140669608,0.0,0.478847651180898,Pet Lovers
1330,1530,Jamie Allen,female,0,0,1,1,9910.0,165.0,17.0,38.0,519.0,6.0,206.0,11.0,19.0,0.0,11548.0,5.0,2014,38.78463080986532,-9.165924590091096,1,0.2409736918262112,No Degree,0,61,22422.0,0.4419766300954419,0.0073588439925073,0.0016947640710016,0.0231469092855231,0.0002675943270002,0.0091874052270091,0.0004905895995004,0.0008473820355008,0.0,0.5150298813665151,Pet Lovers
1336,1537,Tammy Currier,female,0,0,0,1,7375.0,56.0,10.0,397.0,396.0,96.0,290.0,272.0,96.0,0.0,7822.0,27.0,2012,38.77876992853011,-9.195585727600156,1,0.4456196235549758,No Degree,0,58,16800.0,0.4389880952380952,0.0033333333333333,0.0236309523809523,0.0235714285714285,0.0057142857142857,0.0172619047619047,0.0161904761904761,0.0057142857142857,0.0,0.4655952380952381,Pet Lovers
1348,1549,Peter Pittman,male,0,0,0,1,10820.0,46.0,13.0,246.0,521.0,10.0,284.0,170.0,99.0,0.0,11196.0,65.0,2006,38.72254362902338,-9.193533913265483,1,0.0028147803248751,No Degree,0,42,23392.0,0.4625512995896033,0.0019664842681258,0.010516415868673,0.0222725718194254,0.0004274965800273,0.012140902872777,0.0072674418604651,0.0042322161422708,0.0,0.478625170998632,Pet Lovers
1364,1569,Charlene Bowling,female,0,0,0,1,8293.0,7.0,7.0,195.0,508.0,23.0,359.0,293.0,234.0,0.0,9377.0,64.0,2006,38.74509498134008,-9.184351605430022,1,0.1589756008446982,No Degree,0,80,19289.0,0.4299341593654414,0.0003629011353621,0.010109388770802,0.0263362538234226,0.0011923894447612,0.0186116439421431,0.0151900046658717,0.0121312665249624,0.0,0.4861319923272331,Pet Lovers
1367,1573,Angel Taft,male,0,0,1,1,9216.0,171.0,9.0,456.893937976519,546.0,60.0,338.0,307.0,84.0,0.0,10045.0,4.0,2009,38.75745972570437,-9.168355876581234,1,0.1228660608344693,No Degree,0,34,21223.89393797652,0.4342275751533769,0.0080569569608536,0.021527337976326,0.0257257222258836,0.0028270024424047,0.0159254470922136,0.0144648291636378,0.0039578034193667,0.0,0.4732873255659365,Pet Lovers
1381,1589,Michael Cornelius,male,0,0,1,1,3876.0,30.0,8.0,153.0,548.0,1.0,283.0,178.0,5.0,0.0,9095.0,34.0,2013,38.71214234207456,-9.15401192369029,1,0.0283623113877305,No Degree,0,51,14169.0,0.2735549438915943,0.0021172983273343,0.010798221469405,0.0386759827793069,7.057661091114404e-05,0.0199731808878537,0.0125626367421836,0.0003528830545557,0.0,0.6418942762368551,Pet Lovers
1417,1628,Danny Greenhill,male,0,0,1,1,2725.0,174.0,16.0,198.0,613.0,32.0,193.0,44.0,97.0,0.0,9816.0,77.0,2009,38.785873563293904,-9.183371230688469,1,0.414021552390916,No Degree,0,47,13892.0,0.1961560610423265,0.0125251943564641,0.0142528073711488,0.0441261157500719,0.0023034840195796,0.0138928879930895,0.0031672905269219,0.0069824359343507,0.0,0.7065937230060466,Pet Lovers
1421,1632,Virgina Small,female,0,0,1,1,12466.0,121.0,15.0,140.0,629.0,14.0,74.0,225.0,121.0,0.0,8644.0,4.0,2008,38.7090239241094,-9.150625715061306,1,0.4167406774281268,No Degree,0,56,22434.0,0.5556744227511813,0.0053935990015155,0.0062405277703485,0.0280377997682089,0.0006240527770348,0.0032985646786128,0.0100294196309173,0.0053935990015155,0.0,0.385308014620665,Pet Lovers
1428,1639,Thomas Dukes,male,0,0,1,1,6633.0,156.0,8.0,153.0,539.0,2.0,161.0,374.0,83.0,0.0,8460.0,15.0,2012,38.73906484209666,-9.191845781252717,1,0.2862390687041501,No Degree,0,42,16561.0,0.4005192923132661,0.0094197210313386,0.0092385725499667,0.0325463438198176,0.0001207656542479,0.0097216351669585,0.0225831773443632,0.0050117746512891,0.0,0.5108387174687519,Pet Lovers
1435,1649,Gloria Holbrook,female,0,0,1,1,9716.0,100.0,18.0,152.0,563.0,55.0,143.0,309.0,58.0,0.0,13765.0,52.0,2010,38.70936805429137,-9.143955630316428,1,0.1818564784701835,No Degree,0,48,24861.0,0.3908129198342785,0.0040223643457624,0.0061139938055589,0.0226459112666425,0.0022123003901693,0.0057519810144402,0.0124291058284059,0.0023329713205422,0.0,0.5536784521941998,Pet Lovers
1440,1656,Joseph Trofholz,male,0,0,1,1,14990.0,95.0,17.0,263.0,638.0,17.0,225.0,142.0,28.0,0.0,11945.0,54.0,2010,38.74458732125683,-9.144999633594056,1,0.1736233556405356,No Degree,0,72,28343.0,0.5288783826694422,0.0033517976219877,0.0092791871008714,0.0225099671876653,0.0005997953639346,0.0079384680520763,0.0050100553928659,0.0009878982464806,0.0,0.4214444483646756,Pet Lovers
1443,1659,Rena Schulle,female,0,0,0,1,7798.0,414.0,17.0,218.0,570.0,66.0,271.0,288.0,242.0,0.0,11171.0,75.0,2009,38.71775453390955,-9.1644153136055,1,0.2261536195422059,No Degree,0,36,21038.0,0.3706626105143074,0.0196786766802928,0.0103622017302024,0.0270938302119973,0.0031371803403365,0.0128814526095636,0.0136895142123776,0.0115029945812339,0.0,0.5309915391196882,Pet Lovers
1450,1666,James Robertson,male,0,0,1,1,6827.0,153.0,8.0,322.0,586.0,39.0,200.0,282.0,111.0,0.0,10926.0,35.0,2007,38.712927052316736,-9.188740173813612,1,0.3332248199972404,No Degree,0,42,19446.0,0.3510747711611642,0.0078679419932119,0.0165586753059755,0.0301347320785765,0.0020055538414069,0.0102848914943947,0.0145016970070965,0.005708114779389,0.0,0.5618636223387843,Pet Lovers
1457,1675,Delia Veenstra,female,0,0,0,1,5423.0,198.0,10.0,100.0,415.0,42.0,157.0,234.0,54.0,0.0,12324.0,74.0,2008,38.75489914457913,-9.135294976636086,1,0.3064152169924775,No Degree,0,82,18947.0,0.2862194542671663,0.0104502031983955,0.00527788040323,0.0219032036734047,0.0022167097693566,0.0082862722330711,0.0123502401435583,0.0028500554177442,0.0,0.6504459808940729,Pet Lovers
1490,1715,Ricardo Matthew,male,0,0,0,1,4909.0,8.0,15.0,162.0,369.0,2.0,270.0,347.0,28.0,0.0,6761.0,58.0,2010,38.72495308530007,-9.150926444821584,1,0.1835177764229384,No Degree,0,74,12856.0,0.3818450528935905,0.0006222775357809,0.0126011200995644,0.0287025513378967,0.0001555693839452,0.0210018668326073,0.026991288114499,0.0021779713752333,0.0,0.5259023024268824,Pet Lovers
1513,1742,James Luff,male,0,0,1,1,8157.0,395.0,12.0,215.0,399.0,44.0,5.0,239.0,17.0,0.0,2387.0,42.0,2008,38.77199477224744,-9.189294699850986,1,0.023669610642788,No Degree,0,62,11858.0,0.6878900320458762,0.0333108449991566,0.0181312194299207,0.0336481700118063,0.0037105751391465,0.0004216562658121,0.0201551695058188,0.0014336313037611,0.0,0.2012987012987013,Pet Lovers
1531,1761,Jackeline Duvall,female,0,0,1,1,7146.0,73.0,18.0,207.0,521.0,69.0,92.0,153.0,75.0,0.0,8635.0,26.0,2012,38.77349759135347,-9.161511764020885,1,0.0190647257264311,No Degree,0,61,16971.0,0.4210712391727064,0.0043014554239585,0.012197277709033,0.030699428436745,0.0040657592363443,0.0054210123151258,0.0090153791762418,0.0044193035177656,0.0,0.5088091450120794,Pet Lovers
1534,1764,Chad Smith,male,0,0,0,1,18834.0,38.0,6.0,87.0,500.0,16.0,344.0,1.0,79.0,0.0,12548.0,98.0,2008,38.736305028201045,-9.19030813807136,1,0.2204608514575167,No Degree,0,76,32447.0,0.5804542792862206,0.0011711406293339,0.0026812956513699,0.0154097451228156,0.0004931118439301,0.0106019046444971,3.081949024563134e-05,0.0024347397294048,0.0,0.386722963602182,Pet Lovers
1539,1770,Shanita Lamoureux,female,0,0,1,1,8875.0,285.0,9.0,12.0,428.0,55.0,177.0,202.0,147.0,0.0,7586.0,67.0,2009,38.72026180629448,-9.201975945212304,1,0.1431726648525268,No Degree,0,58,17767.0,0.4995215849608825,0.0160409748409973,0.0006754094669893,0.0240896043226205,0.0030956267237012,0.009962289638093,0.0113693926943209,0.0082737659706196,0.0,0.4269713513817752,Pet Lovers
1549,1781,John Pax,male,0,0,1,1,13825.0,220.0,11.0,0.0,444.0,17.0,335.0,232.0,50.0,0.0,7423.0,17.0,2011,38.74668979284958,-9.1583308271816,1,0.39208298164361,No Degree,0,75,22546.0,0.6131908098997605,0.0097578284396345,0.0,0.0196930719418078,0.0007540140157899,0.0148585114876252,0.0102900736272509,0.0022176882817351,0.0,0.3292380023063958,Pet Lovers
1558,1791,Erick Callen,male,0,0,0,1,5394.0,14.0,9.0,283.0,345.0,53.0,249.0,147.0,28.0,0.0,8449.0,4.0,2011,38.74572465021729,-9.166114804723646,1,0.2087090907581317,No Degree,0,51,14962.0,0.3605133003609143,0.0009357037829167,0.0189145836118166,0.0230584146504478,0.0035423071781847,0.0166421601390188,0.0098248897206255,0.0018714075658334,0.0,0.564697232990242,Pet Lovers
1574,1807,Marcella Farr,female,0,0,0,1,7299.0,204.0,13.52057966862436,45.0,412.0,153.0,237.0,112.0,51.0,0.0,10868.0,37.0,2012,38.78749912050486,-9.201121215392472,1,0.2386775295713047,No Degree,0,48,19381.0,0.3766059542851246,0.0105257726639492,0.0023218616170476,0.0212579330271915,0.0078943294979619,0.0122284711831174,0.0057788555802074,0.0026314431659873,0.0,0.5607553789794129,Pet Lovers
1577,1810,Darlene Pfeiff,female,0,0,0,1,8111.0,8.0,10.0,456.893937976519,376.0,11.0,259.0,195.0,163.0,0.0,7925.0,10.0,2006,38.75225345287665,-9.158935721865314,1,0.3044336246188308,No Degree,0,84,17504.89393797652,0.4633561350750801,0.0004570150512391,0.0261009258093987,0.0214797074082394,0.0006283956954538,0.014795862283867,0.0111397418739539,0.0093116816689974,0.0,0.4527305351337701,Pet Lovers
1579,1812,Steve Solomon,male,0,0,0,1,10930.0,104.0,16.0,19.0,634.0,49.0,96.0,460.0,181.0,0.0,10086.0,5.0,2010,38.71000455073359,-9.13568349346401,1,0.3811592248577065,No Degree,0,66,22559.0,0.4845072919898932,0.0046101334279001,0.0008422359147125,0.028104082627776,0.0021720820958375,0.0042555077796001,0.0203909747772507,0.0080234052927878,0.0,0.4470942860942418,Pet Lovers
1584,1820,Thomas Alston,male,0,0,1,1,6363.0,94.0,11.0,200.0,508.0,19.0,184.0,94.0,19.0,0.0,15156.0,41.0,2017,38.73749182969885,-9.13315589561319,1,0.2534887539209757,No Degree,0,75,22637.0,0.2810884834562884,0.0041524937049962,0.0088350929893537,0.0224411361929584,0.0008393338339886,0.0081282855502054,0.0041524937049962,0.0008393338339886,0.0,0.6695233467332243,Pet Lovers
1594,1833,Tina Patterson,female,0,0,1,1,15262.0,62.0,11.0,220.0,501.0,61.0,163.0,295.0,77.0,0.0,8973.0,5.0,2012,38.72418598647763,-9.209621839435812,1,0.2538884062986865,No Degree,0,83,25614.0,0.5958460217068791,0.0024205512610291,0.0085890528617162,0.0195596158350901,0.0023815101116576,0.0063637073475443,0.011517139064574,0.0030061685016006,0.0,0.3503162333099086,Pet Lovers
1595,1834,Jessie Pratt,male,0,0,0,1,10404.0,90.0,10.0,66.0,493.0,66.0,311.0,1471.4238457539814,92.0,0.0,9421.0,93.0,2004,38.72977663243821,-9.20421483390141,1,0.2788570679268436,No Degree,0,75,22414.423845753983,0.4641653995478833,0.0040152716223865,0.0029445325230834,0.0219947656648506,0.0029445325230834,0.0138749941618023,0.0656462934706535,0.0041044998806617,0.0,0.4203097106055948,Pet Lovers
1598,1837,Jordan Agan,male,0,0,1,1,6138.0,158.0,15.0,301.0,490.0,1.0,183.0,63.0,95.0,0.0,11871.0,79.0,2016,38.73686566892856,-9.194893389210916,1,0.3814026035379624,No Degree,0,31,19300.0,0.3180310880829015,0.0081865284974093,0.0155958549222797,0.0253886010362694,5.1813471502590674e-05,0.009481865284974,0.0032642487046632,0.0049222797927461,0.0,0.6150777202072539,Pet Lovers
1602,1842,Mary Pierson,female,0,0,0,1,12708.0,153.0,6.0,43.0,618.0,51.0,139.0,411.0,43.0,0.0,5443.0,19.0,2008,38.73392874032509,-9.146757146271009,1,0.2936906270109942,No Degree,0,42,19609.0,0.6480697638839309,0.0078025396501606,0.0021928706206333,0.0315161405477076,0.0026008465500535,0.0070885817736753,0.0209597633739609,0.0021928706206333,0.0,0.2775766229792442,Pet Lovers
1615,1858,Elizabeth Hodge,female,0,0,0,1,12546.0,132.0,8.0,295.0,449.0,94.0,44.0,1471.4238457539814,49.0,0.0,9195.0,49.0,2008,38.78589626436645,-9.17446583720914,1,0.0356871664199328,No Degree,0,75,24275.423845753983,0.5168189886082842,0.0054375981584802,0.0121522080056945,0.0184960725239215,0.003872228991645,0.0018125327194934,0.0606137241970894,0.0020185023467085,0.0,0.3787781444486827,Pet Lovers
1626,1873,Erin Campbell,female,0,0,1,1,758.0,499.0,11.0,396.0,534.0,9.0,256.0,259.0,147.0,0.0,10012.0,17.0,2010,38.72650786983779,-9.20963143665771,1,0.1038374354075828,No Degree,0,69,12870.0,0.0588966588966589,0.0387723387723387,0.0307692307692307,0.0414918414918414,0.0006993006993006,0.0198912198912198,0.0201243201243201,0.0114219114219114,0.0,0.777933177933178,Pet Lovers
1632,1880,Latisha Rivera,female,0,0,1,1,10951.0,491.0,8.0,334.0,530.0,72.0,287.0,1471.4238457539814,23.0,0.0,7622.0,89.0,2007,38.73450584852066,-9.15761337399341,1,0.2715176367818861,No Degree,0,50,21781.423845753983,0.5027678666716162,0.0225421443279849,0.0153341674247392,0.0243326608835683,0.0033055690256922,0.0131763654218568,0.0675540706692972,0.001055945660985,0.0,0.3499312099142597,Pet Lovers
1649,1900,Robert Chunn,male,0,0,0,1,13606.0,6.0,15.0,245.0,517.0,32.0,280.0,257.0,15.0,0.0,5516.0,94.0,2013,38.77433276796204,-9.13380011727616,1,0.1852654074697224,No Degree,0,65,20474.0,0.6645501611800332,0.0002930546058415,0.0119663964051968,0.0252515385366806,0.0015629578978216,0.0136758816059392,0.0125525056168799,0.0007326365146038,0.0,0.269414867637003,Pet Lovers
1654,1908,John Turk,male,0,0,0,1,10151.0,6.0,17.0,34.0,433.0,9.0,200.0,125.0,177.0,0.0,6429.0,85.0,2007,38.725334481465765,-9.166938970302397,1,0.4025314472178825,No Degree,0,42,17564.0,0.5779435208380779,0.0003416078342063,0.0019357777271692,0.0246526987018902,0.0005124117513094,0.0113869278068777,0.0071168298792985,0.0100774311090867,0.0,0.3660327943520838,Pet Lovers
1658,1912,Randy Timko,male,0,0,1,1,12394.0,98.0,7.0,266.0,485.0,184.0,312.0,74.0,40.0,0.0,9736.0,45.0,2019,38.75067289088863,-9.142968526487724,1,0.1888296220522854,No Degree,0,27,23589.0,0.5254143880622324,0.0041544787824833,0.0112764424095976,0.0205604307092288,0.0078002458773156,0.0132265038789266,0.0031370554071813,0.0016957056255034,0.0,0.4127347492475306,Pet Lovers
1660,1915,Florence Kline,female,0,0,1,1,14278.0,57.0,7.0,288.0,301.0,16.0,158.0,240.0,52.0,0.0,9360.0,64.0,2010,38.74842687481482,-9.167708631034747,1,0.2284447511343939,No Degree,0,47,24750.0,0.5768888888888889,0.0023030303030303,0.0116363636363636,0.0121616161616161,0.0006464646464646,0.0063838383838383,0.0096969696969696,0.0021010101010101,0.0,0.3781818181818182,Pet Lovers
1666,1923,Gwendolyn Gold,female,0,0,0,1,13887.0,223.0,14.0,201.0,395.0,54.0,223.0,104.0,66.0,0.0,9217.0,49.0,2010,38.74856073436795,-9.208790139706338,1,0.2342492362091629,No Degree,0,45,24370.0,0.5698399671727534,0.0091505949938448,0.0082478457119409,0.0162084530160032,0.0022158391464915,0.0091505949938448,0.0042675420599097,0.0027082478457119,0.0,0.3782109150594994,Pet Lovers
1676,1934,Laura Lashley,female,0,0,0,1,13582.0,297.0,7.0,33.0,515.0,37.0,162.0,204.0,40.0,0.0,11277.0,18.0,2008,38.754706174017066,-9.13716463506964,1,0.1716190026652075,No Degree,0,78,26147.0,0.5194477377901863,0.0113588557004627,0.0012620950778291,0.0196963322752132,0.0014150762993842,0.0061957394729796,0.0078020422993077,0.0015298122155505,0.0,0.4312923088690863,Pet Lovers
1678,1936,Milton Inman,male,0,0,1,1,18622.0,128.0,15.0,129.0,476.0,116.0,294.0,108.0,150.0,0.0,12662.0,44.0,2009,38.71872661253351,-9.137166866856523,1,0.1987090460186826,No Degree,0,51,32685.0,0.5697414716230687,0.003916169496711,0.003946764570904,0.0145632553158941,0.0035490286063943,0.0089949518127581,0.0033042680128499,0.0045892611289582,0.0,0.3873948294324614,Pet Lovers
1694,1952,John Ross,male,0,0,1,1,9118.0,35.0,15.0,250.0,707.0,42.0,59.0,98.0,35.0,0.0,8281.0,25.0,2011,38.724397217895714,-9.20530504924282,1,0.1079172422640123,No Degree,0,38,18625.0,0.4895570469798658,0.0018791946308724,0.0134228187919463,0.0379597315436241,0.0022550335570469,0.0031677852348993,0.0052617449664429,0.0018791946308724,0.0,0.4446174496644295,Pet Lovers
1697,1956,Beatrice Gregory,female,0,0,1,1,6380.0,279.0,8.0,138.0,278.0,33.0,259.0,366.0,14.0,0.0,13197.0,32.0,2009,38.76429860148605,-9.172131023106337,1,0.2703817764675333,No Degree,0,40,20944.0,0.3046218487394957,0.0133212375859434,0.006588999236058,0.0132734912146676,0.0015756302521008,0.0123663101604278,0.0174751718869365,0.0006684491978609,0.0,0.6301088617265088,Pet Lovers
1701,1960,Myrtice Mcnab,female,0,0,0,1,23069.0,185.0,12.0,129.0,629.0,20.0,158.0,1471.4238457539814,153.0,0.0,12609.0,51.0,2019,38.74592786747517,-9.175829104137062,1,0.1850964982069144,No Degree,0,27,38423.42384575398,0.6003889734711724,0.0048147713421547,0.0033573270439889,0.0163702225633259,0.0005205158207734,0.0041120749841105,0.0382949695389153,0.0039819460289171,0.0,0.3281591992066415,Pet Lovers
1703,1962,Nancy Wilson,female,0,0,0,1,12915.0,31.0,17.0,298.0,543.0,2.0,230.0,401.0,32.0,0.0,8558.0,49.0,2009,38.71759692257547,-9.16755229670033,1,0.0526079206167277,No Degree,0,48,23010.0,0.5612777053455019,0.0013472403302911,0.0129508909169926,0.0235984354628422,8.69187309865276e-05,0.0099956540634506,0.0174272055627987,0.0013906996957844,0.0,0.3719252498913515,Pet Lovers
1719,1979,Richard Cook,male,0,0,1,1,10095.0,133.0,6.0,182.0,603.0,22.0,49.0,118.0,131.0,0.0,5816.0,50.0,2011,38.78535581057291,-9.155523679608152,1,0.2284380949388736,No Degree,0,49,17149.0,0.5886640620444341,0.0077555542597235,0.0106128637238322,0.0351624001399498,0.0012828736369467,0.0028573094641086,0.006880867689078,0.0076389293836375,0.0,0.3391451396582891,Pet Lovers
1729,1989,Matthew Brown,male,0,0,0,1,8631.0,208.0,20.0,128.0,521.0,3.0,175.0,76.0,48.0,0.0,4089.0,29.0,2013,38.75870268632232,-9.188359298966446,1,0.2183407204109082,No Degree,0,71,13879.0,0.6218747748396859,0.0149866705094026,0.0092225664673247,0.0375387275740327,0.0002161539015779,0.0126089775920455,0.005475898839974,0.0034584624252467,0.0,0.2946177678507097,Pet Lovers
1732,1993,Joshua Bowling,male,0,0,0,1,9824.0,194.0,7.0,323.0,651.0,23.0,86.0,432.0,42.0,0.0,10731.0,114.0,2010,38.73351010836425,-9.147089931326812,1,0.2716753879193792,No Degree,0,33,22306.0,0.4404196180399892,0.0086972115125975,0.014480408858603,0.0291849726530978,0.0010311127051017,0.003855464897337,0.0193669864610418,0.0018829014614901,0.0,0.4810813234107415,Pet Lovers
1752,2017,Diane Barrett,female,0,0,0,1,16512.0,157.0,9.0,60.0,428.0,75.0,309.0,355.0,136.0,0.0,11879.0,26.0,2012,38.76512560052,-9.175837556680978,1,0.2724798149624022,No Degree,0,56,29911.0,0.5520377118785731,0.0052489050850857,0.0020059509879308,0.0143091170472401,0.0025074387349135,0.0103306475878439,0.0118685433452575,0.0045468222393099,0.0,0.397144863093845,Pet Lovers
1755,2020,Doris Gibson,female,0,0,1,1,7408.0,26.0,12.0,247.0,558.0,45.0,139.0,255.0,241.0,0.0,7279.0,57.0,2014,38.72421907269258,-9.197250569893924,1,0.235242548762017,No Degree,0,37,16198.0,0.4573404123965922,0.0016051364365971,0.0152487961476725,0.0344486973700456,0.0027781207556488,0.0085813063341153,0.0157426842820101,0.0148783800469193,0.0,0.4493764662303988,Pet Lovers
1757,2023,David Mccurry,male,0,0,0,1,6664.0,139.0,8.0,201.0,618.0,13.0,256.0,231.0,130.0,0.0,12989.0,55.0,2005,38.71497907471603,-9.167881671188375,1,0.1445892569128795,No Degree,0,49,21241.0,0.3137328751000424,0.0065439480250459,0.0094628313167929,0.0290946753919307,0.0006120239160114,0.0120521632691492,0.0108751941998964,0.0061202391601148,0.0,0.611506049621016,Pet Lovers
1762,2028,Jessica Uccio,female,0,0,0,1,17131.0,184.0,17.0,238.0,543.0,8.0,169.0,154.0,181.0,0.0,9679.0,104.0,2009,38.77551347072963,-9.14145562036408,1,0.1551583221240684,No Degree,0,77,28287.0,0.6056138862374942,0.0065047548343762,0.0084137589705518,0.0191960971470993,0.0002828154275815,0.0059744759076607,0.0054441969809453,0.0063986990490331,0.0,0.3421713154452575,Pet Lovers
1776,2043,Elizabeth Lee,female,0,0,0,1,10641.0,159.0,13.0,113.0,492.0,169.0,153.0,175.0,61.0,0.0,9135.0,19.0,2009,38.78808131715124,-9.206616565132707,1,0.2188660211692592,No Degree,0,43,21098.0,0.5043606029007489,0.0075362593610768,0.0053559579107024,0.0233197459474831,0.0080102379372452,0.0072518722153758,0.0082946250829462,0.0028912693146269,0.0,0.4329794293297943,Pet Lovers
1789,2058,Keith Rahman,male,0,0,0,1,13554.0,36.0,13.0,115.0,509.0,38.0,499.0,99.0,21.0,0.0,8255.0,77.0,2004,38.77547129403316,-9.16915890307212,1,0.0904663940532829,No Degree,0,80,23126.0,0.5860935743319208,0.0015566894404566,0.004972757934792,0.0220098590331228,0.0016431721871486,0.0215774452996627,0.0042808959612557,0.0009080688402663,0.0,0.3569575369713742,Pet Lovers
1820,2092,Adriene Sanmartin,female,0,0,1,1,4969.0,169.0,11.0,456.893937976519,386.0,32.0,225.0,280.0,67.0,0.0,17001.0,39.0,2009,38.717561024801526,-9.191514323816222,1,0.1800633230393042,No Degree,0,41,23585.89393797652,0.2106767720174994,0.0071652997526579,0.0193714912471838,0.0163657142279643,0.0013567431484322,0.0095396002624144,0.0118715025487824,0.00284068096703,0.0,0.7208121958280352,Pet Lovers
1827,2103,Lucilla Joy,female,0,0,0,1,10495.0,458.0,6.0,299.0,251.0,74.0,167.0,236.0,72.0,0.0,12027.0,34.0,2011,38.76802676271765,-9.19706152530662,1,0.3498660371115224,No Degree,0,63,24079.0,0.4358569708044354,0.0190207234519705,0.0124174591968104,0.0104240209311017,0.0030732173263009,0.0069355039661115,0.0098010714730678,0.002990157398563,0.0,0.4994808754516384,Pet Lovers
1833,2110,Renee Graves,female,0,0,1,1,6945.0,18.0,10.0,298.0,530.0,67.0,66.0,62.0,36.0,0.0,9744.0,22.0,2006,38.74917373769099,-9.200204866811385,1,0.2727742945236918,No Degree,0,47,17766.0,0.3909152313407633,0.0010131712259371,0.0167736125182933,0.029832263874817,0.0037712484520995,0.0037149611617696,0.0034898120004502,0.0020263424518743,0.0,0.5484633569739953,Pet Lovers
1837,2114,Shawna Mentzer,female,0,0,0,1,8647.0,246.0,11.0,300.0,516.0,37.0,93.0,287.0,48.0,0.0,7896.0,20.0,2011,38.77992492977268,-9.161150536094606,1,0.2450642817654679,No Degree,0,59,18070.0,0.4785279468732706,0.0136137244050913,0.0166021029330381,0.0285556170448256,0.0020475926950747,0.0051466519092418,0.0158826784726065,0.0026563364692861,0.0,0.436967349197565,Pet Lovers
1846,2126,Georgia Moore,female,0,0,0,1,11692.0,248.0,8.0,30.0,597.0,31.0,171.0,161.0,56.0,0.0,9056.0,86.0,2012,38.7669314577873,-9.16031112373782,1,0.2203139113867431,No Degree,0,45,22042.0,0.5304418836766174,0.0112512476181834,0.0013610380183286,0.02708465656474,0.0014064059522729,0.0077579167044732,0.0073042373650303,0.0025406043008801,0.0,0.4108520097994737,Pet Lovers
1853,2134,Toshia Wright,female,0,0,0,1,13355.0,168.0,13.52057966862436,61.0,527.0,18.0,313.0,254.0,170.0,0.0,9895.0,92.0,2014,38.75260000787443,-9.137926465043796,1,0.281325305489657,No Degree,0,68,24761.0,0.5393562457089778,0.0067848632930818,0.0024635515528452,0.0212834699729413,0.0007269496385444,0.0126408464924679,0.0102580671216832,0.0068656354751423,0.0,0.3996203707443156,Pet Lovers
1863,2148,Terrence Lara,male,0,0,1,1,12712.0,65.0,12.0,290.0,573.0,35.0,112.0,218.0,64.0,0.0,11738.0,25.0,2008,38.74725976559294,-9.173700826362213,1,0.0080331665210989,No Degree,0,67,25807.0,0.4925795326849304,0.0025186964776998,0.0112372612081993,0.0222032781803386,0.0013562211802999,0.0043399077769597,0.0084473204944394,0.0024799473011198,0.0,0.4548378346960127,Pet Lovers
1886,2176,Alexander Gonzalez,male,0,0,1,1,12848.0,84.0,14.0,418.0,321.0,26.0,248.0,60.0,145.0,0.0,13881.0,11.0,2011,38.765593704688655,-9.177628109258228,1,0.1873651833271089,No Degree,0,77,28031.0,0.4583496842781207,0.0029966822446577,0.0149120616460347,0.0114516071492276,0.0009275445042988,0.0088473475794655,0.0021404873176126,0.0051728443508972,0.0,0.495201740929685,Pet Lovers
1916,2214,Michael Long,male,0,0,1,1,12872.0,228.0,7.0,94.0,419.0,30.0,339.0,187.0,37.0,0.0,11877.0,33.0,2010,38.726871940848895,-9.150332361763413,1,0.3376918980787841,No Degree,0,83,26083.0,0.4935015143963501,0.0087413257677414,0.0036038799217881,0.0160641030556301,0.0011501744431238,0.0129969712072997,0.0071694206954721,0.0014185484798527,0.0,0.4553540620327416,Pet Lovers
1929,2228,Terry Harris,male,0,0,0,1,6178.0,235.0,12.0,138.0,567.0,25.0,136.0,40.0,161.0,0.0,11241.0,49.0,2009,38.74799654770526,-9.14598727494112,1,0.159964974428365,No Degree,0,48,18721.0,0.3300037391165001,0.0125527482506276,0.0073714011003685,0.0302868436515143,0.0013353987500667,0.0072645692003632,0.0021366380001068,0.0085999679504299,0.0,0.6004486939800224,Pet Lovers
1933,2232,Jose Higgins,male,0,0,0,1,5774.0,186.0,10.0,217.0,571.0,5.0,195.0,89.0,143.0,0.0,8113.0,60.0,2006,38.74815172415629,-9.160345543039863,1,0.247386480768473,No Degree,0,40,15293.0,0.3775583600340025,0.0121624272542993,0.0141894984633492,0.0373373438828222,0.0003269469692015,0.0127509317988622,0.0058196560517884,0.0093506833191656,0.0,0.5305041522265088,Pet Lovers
1935,2235,Cindy Kilkenny,female,0,0,0,1,11618.0,63.0,12.0,61.0,563.0,41.0,249.0,122.0,49.0,0.0,9567.0,84.0,2010,38.75592261179489,-9.172560847809542,1,0.2208489327010703,No Degree,0,43,22333.0,0.5202167196525321,0.0028209376259347,0.0027313840505082,0.0252093314825594,0.0018358482962432,0.0111494201405991,0.0054627681010164,0.0021940625979492,0.0,0.4283795280526575,Pet Lovers
1940,2241,Mark Willis,male,0,0,0,1,4861.0,202.0,7.0,274.0,452.0,4.0,170.0,257.0,49.0,0.0,4898.0,63.0,2022,38.7192267942907,-9.181722377965654,1,0.0733784014113012,No Degree,0,24,11167.0,0.4353004387928718,0.0180890122682905,0.0245365809975821,0.0404764036894421,0.0003581982627384,0.015223426166383,0.0230142383809438,0.0043879287185457,0.0,0.4386137727232023,Pet Lovers
1945,2249,Leslie Kelsey,female,0,0,0,1,7705.0,177.0,17.0,173.0,779.0,49.0,253.0,297.0,27.0,0.0,11812.0,85.0,2007,38.71679706158754,-9.155855826410033,1,0.363994771409125,No Degree,0,50,21272.0,0.3622132380594208,0.0083207972922151,0.0081327566754418,0.0366209101165851,0.0023034975554719,0.0118935690109063,0.0139620157954118,0.0012692741632192,0.0,0.5552839413313275,Pet Lovers
1959,2263,Donna Cornejo,female,0,0,0,1,17152.0,387.0,16.0,54.0,623.0,91.0,226.0,124.0,34.0,0.0,12048.0,10.0,2006,38.78209987541919,-9.160347360194814,1,0.0883471709121134,No Degree,0,69,30739.0,0.5579882234295195,0.0125898695468297,0.0017567259832785,0.0202674127330101,0.0029604086014509,0.0073522235596473,0.00403396336901,0.0011060867302124,0.0,0.3919450860470412,Pet Lovers
1979,2283,Marlene Hernandez,female,0,0,0,1,9625.0,282.0,14.0,319.0,491.0,42.0,4.0,208.0,51.0,0.0,9994.0,72.0,2010,38.72544393067004,-9.175367991372609,1,0.0187852217171123,No Degree,0,67,21016.0,0.4579843928435477,0.0134183479253901,0.0151789113056718,0.0233631518842786,0.00199847735059,0.0001903311762466,0.0098972211648268,0.002426722497145,0.0,0.475542443852303,Pet Lovers
1993,2302,Linda Downing,female,0,0,1,1,10728.0,106.0,17.0,199.0,561.0,74.0,260.0,342.0,104.0,0.0,8189.0,32.0,2005,38.78146465362329,-9.171721386704098,1,0.1523518611019743,No Degree,0,72,20563.0,0.521713757720177,0.0051548898507027,0.0096775762291494,0.0272820113796625,0.0035986966882264,0.0126440694451198,0.0166318144239653,0.0050576277780479,0.0,0.3982395564849487,Pet Lovers
2002,2312,Eric Belgarde,male,0,0,0,1,10849.0,347.0,10.0,267.0,677.0,11.0,108.0,188.0,212.0,0.0,12113.0,26.0,2023,38.774210338610985,-9.16104898775752,1,0.1966647185667007,No Degree,0,24,24772.0,0.4379541417729695,0.0140077506862586,0.0107782980784756,0.0273292426933634,0.0004440497335701,0.004359761020507,0.00758921362829,0.0085580494106248,0.0,0.4889794929759405,Pet Lovers
2015,2326,Brandon Thomas,male,0,0,0,1,7972.0,206.0,11.0,91.0,540.0,12.0,161.0,163.0,33.0,0.0,4614.0,52.0,2009,38.77998712272228,-9.174726442321386,1,0.0852036430365195,No Degree,0,77,13792.0,0.578016241299304,0.0149361948955916,0.0065980278422273,0.03915313225058,0.0008700696055684,0.0116734338747099,0.011818445475638,0.0023926914153132,0.0,0.3345417633410673,Pet Lovers
2029,2343,Karen Geer,female,0,0,1,1,13105.0,167.0,7.0,220.0,487.0,28.0,257.0,122.0,4.0,0.0,13386.0,53.0,2011,38.75028912333873,-9.143486125509938,1,0.2534887539209757,No Degree,0,35,27776.0,0.4718101958525346,0.0060123847926267,0.0079205069124423,0.0175331221198156,0.001008064516129,0.0092525921658986,0.0043922811059907,0.0001440092165898,0.0,0.4819268433179723,Pet Lovers
2042,2357,Margot Underwood,female,0,0,0,1,10421.0,255.0,8.0,369.0,384.0,107.0,186.0,175.0,97.0,0.0,9489.0,12.0,2009,38.78143120454013,-9.161905028826784,1,0.2480988306623003,No Degree,0,37,21483.0,0.4850812270167109,0.011869850579528,0.0171763720150816,0.0178745985197598,0.0049806824000372,0.0086580086580086,0.0081459758879113,0.0045151980635851,0.0,0.4416980868593771,Pet Lovers
2048,2364,Verna Krajcer,female,0,0,0,1,8900.0,441.0,14.0,260.0,562.0,15.0,119.0,222.0,126.0,0.0,5346.0,45.0,2006,38.787134347879416,-9.18597932389782,1,0.0075766226907561,No Degree,0,82,15991.0,0.5565630667250329,0.0275780126321055,0.0162591457694953,0.0351447689325245,0.0009380276405478,0.0074416859483459,0.0138828090801075,0.0078794321806015,0.0,0.3343130510912388,Pet Lovers
2051,2369,Janet Mills,female,0,0,0,1,4995.0,407.0,11.0,254.0,531.0,18.0,255.0,86.0,75.0,0.0,16654.0,22.0,2009,38.75646818569937,-9.18559123213938,1,0.109045021500906,No Degree,0,39,23275.0,0.2146079484425349,0.0174865735767991,0.0109129967776584,0.0228141783029001,0.0007733619763694,0.0109559613319011,0.0036949516648764,0.0032223415682062,0.0,0.7155316863587541,Pet Lovers
2053,2371,Gladys Betancourt,female,0,0,0,1,13150.0,498.0,6.0,133.0,504.0,2.0,147.0,159.0,66.0,0.0,15768.0,53.0,2007,38.77216794852375,-9.1393336627634,1,0.1506529317140509,No Degree,0,78,30427.0,0.4321819436684523,0.0163670424294212,0.004371117757255,0.0165642357117034,6.57310940940612e-05,0.0048312354159134,0.0052256219804778,0.002169126105104,0.0,0.5182239458375785,Pet Lovers
2074,2396,Gregg Jones,male,0,0,0,1,7871.0,70.0,17.0,334.0,582.0,70.0,276.0,324.0,34.0,0.0,13615.0,98.0,2011,38.73209929502541,-9.142872486467022,1,0.207931960400335,No Degree,0,81,23176.0,0.3396185709354504,0.0030203658957542,0.0144114601311701,0.0251121850189851,0.0030203658957542,0.0119088712461166,0.0139799792889195,0.001467034863652,0.0,0.5874611667241975,Pet Lovers
2104,2431,Ora Boggess,female,0,0,0,1,10825.0,207.0,17.0,153.0,252.0,60.0,285.0,151.0,53.0,0.0,4135.0,70.0,2007,38.78216911920023,-9.150318451442184,1,0.2158518763258598,No Degree,0,82,16121.0,0.6714843992308169,0.0128403945164692,0.0094907263817381,0.0156317846287451,0.0037218534830345,0.0176788040444141,0.0093666645989702,0.0032876372433471,0.0,0.2564977358724645,Pet Lovers
2117,2448,Ralph Warner,male,0,0,0,1,11134.0,107.0,7.0,118.0,438.0,61.0,171.0,216.0,1.0,0.0,7221.0,65.0,2024,38.70842559605252,-9.156859939407203,1,0.2589446337026819,No Degree,0,22,19467.0,0.5719422612626496,0.0054964812246365,0.0060615400421225,0.0224996147326244,0.0031335079878769,0.0087840961627369,0.0110957004160887,5.136898340781836e-05,0.0,0.3709354291878564,Pet Lovers
2140,2471,Kathleen Kight,female,0,0,1,1,11293.0,130.0,6.0,115.0,524.0,36.0,206.0,136.0,199.0,0.0,10316.0,86.0,2010,38.78811633315803,-9.205749488739691,1,0.1826173446911749,No Degree,0,52,22955.0,0.4919625353953387,0.0056632541929862,0.0050098017861032,0.0228272707471139,0.0015682857765192,0.0089740797211936,0.0059246351557394,0.0086691352646482,0.0,0.4494010019603572,Pet Lovers
2152,2483,Sharon Cook,female,0,0,1,1,15316.0,519.0,17.0,142.0,728.0,80.0,217.0,265.0,18.0,0.0,2078.0,13.0,2015,38.74327057092585,-9.186697552087468,1,0.2198581287194954,No Degree,0,55,19363.0,0.7909931312296649,0.0268036977741052,0.0073335743428187,0.0375974797293807,0.0041315911790528,0.0112069410731808,0.0136858957806125,0.0009296080152868,0.0,0.1073180808758973,Pet Lovers
2163,2496,James Skees,male,0,0,0,1,429.0,18.0,8.0,218.0,491.0,83.0,108.0,129.0,0.0,0.0,15150.0,71.0,2012,38.77886369119343,-9.151566354070374,1,0.2654722034287444,No Degree,0,80,16626.0,0.025802959220498,0.0010826416456153,0.013111993263563,0.0295320582220618,0.0049921809214483,0.0064958498736918,0.0077589317935763,0.0,0.0,0.9112233850595453,Pet Lovers
2172,2506,William Duncan,male,0,0,0,1,18634.0,227.0,10.0,234.0,339.0,59.0,95.0,187.0,8.0,0.0,9830.0,30.0,2007,38.77351694036653,-9.14871235342094,1,0.205027596177223,No Degree,0,73,29613.0,0.6292506669368183,0.0076655522912234,0.0079019349609968,0.011447675007598,0.0019923682166616,0.0032080505183534,0.0063147941782325,0.0002701516225981,0.0,0.3319488062675176,Pet Lovers
2173,2507,Maria Joosten,female,0,0,1,1,9577.0,223.0,15.0,261.0,524.0,3.0,199.0,236.0,77.0,0.0,10253.0,15.0,2014,38.748501513368666,-9.194995778087124,1,0.2679666960128219,No Degree,0,73,21353.0,0.4485084063129302,0.0104434974008336,0.0122231068233971,0.0245398773006134,0.0001404954807287,0.0093195335550039,0.0110523111506579,0.0036060506720367,0.0,0.480166721303798,Pet Lovers
2181,2515,Annette Presnell,female,0,0,1,1,10755.0,229.0,18.0,253.0,573.0,93.0,74.0,179.0,46.0,0.0,10511.0,15.0,2011,38.74509332879022,-9.152065262285548,1,0.319158617591057,No Degree,0,76,22713.0,0.473517368907674,0.0100823317043103,0.0111389952890415,0.0252278430854576,0.0040945713908334,0.0032580460529212,0.0078809492361202,0.0020252718707348,0.0,0.4627746224629067,Pet Lovers
2184,2519,Michael Rivas,male,0,0,0,1,6523.0,57.0,16.0,256.0,503.0,2.0,153.0,22.0,10.0,0.0,8861.0,66.0,2012,38.7697823722599,-9.18166020601151,1,0.2873555426199313,No Degree,0,73,16387.0,0.398059437358882,0.0034783669982303,0.0156221395008238,0.0306950631598218,0.0001220479648501,0.0093366693110392,0.001342527613352,0.0006102398242509,0.0,0.5407335082687497,Pet Lovers
2191,2526,Anna Denny,female,0,0,1,1,11528.0,72.0,16.0,294.0,398.0,68.0,143.0,164.0,25.0,0.0,13930.0,47.0,2010,38.74965482210207,-9.134613931288388,1,0.3237389558216555,No Degree,0,49,26622.0,0.4330253174066562,0.0027045300878972,0.0110434978589136,0.0149500413192096,0.0025542784163473,0.0053714972579069,0.0061603185335436,0.0009390729471865,0.0,0.5232514461723387,Pet Lovers
2193,2528,Willis Brooks,male,0,0,1,1,1727.0,182.0,9.0,159.0,530.0,41.0,231.0,1471.4238457539814,160.0,0.0,8433.0,29.0,2007,38.72494913715538,-9.13967561880929,1,0.2419815767389064,No Degree,0,66,12934.42384575398,0.1335196697274557,0.0140709785121001,0.0122927779309006,0.0409759264363355,0.0031698358186599,0.0178593188807424,0.1137602929439342,0.0123700909996484,0.0,0.6519811087502226,Pet Lovers
2221,2563,Colleen Brooks,female,0,1,0,1,2280.0,378.0,8.0,384.0,430.0,24.0,380.0,173.0,58.0,0.0,7582.0,54.0,2010,38.76874425685869,-9.170613896522912,1,0.2786484243626252,No Degree,1,46,11689.0,0.1950551800838395,0.0323380956454786,0.0328513987509624,0.0367867225596714,0.0020532124219351,0.0325091966806399,0.0148002395414492,0.0049619300196766,0.0,0.648644024296347,Pet Lovers
2223,2565,Shawna Corvin,female,0,0,0,1,10298.0,152.0,19.0,162.0,382.0,3.0,172.0,304.0,66.0,0.0,8043.0,58.0,2006,38.7280454431177,-9.169244704418984,1,0.2395595839597273,No Degree,0,51,19582.0,0.5258911245020937,0.0077622306199571,0.0082729036870595,0.0195077111633132,0.0001532019201307,0.0087835767541619,0.0155244612399142,0.0033704422428761,0.0,0.4107343478704933,Pet Lovers
2228,2571,Brett Runyan,male,0,0,1,1,13501.0,214.0,12.0,82.0,641.0,29.0,187.0,142.0,16.0,0.0,7300.0,28.0,2007,38.72187074624328,-9.159469592207484,1,0.2566192754194422,No Degree,0,58,22112.0,0.6105734442836469,0.009678002894356,0.0037083936324167,0.0289887843704775,0.001311505065123,0.0084569464544138,0.0064218523878437,0.0007235890014471,0.0,0.330137481910275,Pet Lovers
2231,2574,Annette Denk,female,0,0,1,1,14048.0,325.0,11.0,132.0,452.0,52.0,292.0,238.0,167.0,0.0,4739.0,39.0,2010,38.74055278685523,-9.202048162597656,1,0.3476716591269764,No Degree,0,55,20445.0,0.6871117632673025,0.0158963071655661,0.0064563462949376,0.0221080948887258,0.0025434091464905,0.0142822205918317,0.0116409880166299,0.0081682562973832,0.0,0.2317926143311323,Pet Lovers
2244,2590,Mary Leonard,female,0,0,0,1,11340.0,156.0,9.0,113.0,415.0,56.0,268.0,2.0,110.0,0.0,11603.0,43.0,2013,38.746227096660725,-9.192351192122262,1,0.2760853290703163,No Degree,0,43,24063.0,0.4712629347961601,0.006482982171799,0.0046960063167518,0.0172463948801063,0.0023272243693637,0.0111374309105265,8.311515604870549e-05,0.0045713335826788,0.0,0.4821925778165648,Pet Lovers
2249,2597,Donald Mentgen,male,0,0,0,1,9580.0,81.0,14.0,195.0,436.0,93.0,242.0,309.0,75.0,0.0,11607.0,43.0,2016,38.741347689606286,-9.20542688167068,1,0.2168132969210744,No Degree,0,31,22618.0,0.4235564594570696,0.0035812184985409,0.008621451940932,0.0192766822884428,0.0041117693872137,0.0106994429215668,0.013661685383323,0.0033159430542046,0.0,0.5131753470687064,Pet Lovers
2251,2599,Phoebe Chancey,female,0,0,1,1,9600.0,266.0,18.0,277.0,507.0,20.0,39.0,13.0,41.0,0.0,11216.0,49.0,2011,38.70882175615924,-9.165572559002872,1,0.3699128115067274,No Degree,0,81,21979.0,0.4367805632649347,0.0121024614404659,0.0126029391692069,0.0230674734974293,0.0009099595068019,0.0017744210382637,0.0005914736794212,0.0018654169889439,0.0,0.5103052914145321,Pet Lovers
2280,2633,Jewell Gebhardt,male,0,0,1,1,6231.0,257.0,8.0,172.0,567.0,76.0,52.0,427.0,59.0,0.0,5660.0,74.0,2012,38.71429608830899,-9.187538849669355,1,0.2661226539771603,No Degree,0,41,13501.0,0.4615213687874972,0.0190356269905932,0.0127397970520702,0.0419968891193245,0.0056292126509147,0.0038515665506258,0.0316272868676394,0.0043700466632101,0.0,0.4192282053181246,Pet Lovers
2296,2651,Bonnie Hatfield,female,0,0,1,1,18068.0,89.0,11.0,333.0,309.0,92.0,27.0,166.0,3.0,0.0,8740.0,69.0,2022,38.71333312281888,-9.186253716295788,1,0.0404888652450492,No Degree,0,25,27827.0,0.6492974449275883,0.003198332554713,0.0119667948395443,0.0111043231393969,0.0033061415172314,0.0009702806626657,0.0059654292593524,0.0001078089625184,0.0,0.3140834441369892,Pet Lovers
2315,2671,Thomas Borders,male,0,0,1,1,4308.0,415.0,15.0,117.0,376.0,115.0,227.0,290.0,18.0,0.0,8231.0,60.0,2012,38.75668890651311,-9.150244338586392,1,0.1767110238888625,No Degree,0,49,14097.0,0.3055969355181953,0.0294388877066042,0.008299638220898,0.0266723416329715,0.0081577640632758,0.0161027168901184,0.0205717528552174,0.0012768674185997,0.0,0.5838830956941193,Pet Lovers
2317,2673,Robert Moore,male,0,0,0,1,10479.0,11.0,14.0,75.0,520.0,2.0,172.0,236.0,129.0,0.0,11688.0,62.0,2006,38.75754093236582,-9.134868499793065,1,0.0844784150585076,No Degree,0,48,23312.0,0.4495109814687714,0.0004718599862731,0.0032172271791352,0.0223061084420041,8.579272477693891e-05,0.0073781743308167,0.0101235415236787,0.0055336307481125,0.0,0.5013726835964311,Pet Lovers
2332,2692,Harry Goetz,male,0,0,0,1,7512.0,60.0,7.0,171.0,443.0,65.0,276.0,133.0,196.0,0.0,7707.0,50.0,2008,38.76921610126679,-9.198424571064804,1,0.0863727772492805,No Degree,0,58,16563.0,0.4535410251765984,0.0036225321499728,0.0103242166274225,0.026746362373966,0.0039244098291372,0.016663647889875,0.0080299462657731,0.0118336050232445,0.0,0.4653142546640101,Pet Lovers
2334,2694,Michele Wilson,female,0,0,0,1,12455.0,295.0,6.0,179.0,531.0,18.0,211.0,284.0,40.0,0.0,10495.0,28.0,2010,38.71738247716608,-9.153966083731486,1,0.0605616411673584,No Degree,0,69,24508.0,0.5082014036233067,0.0120368859148033,0.007303737555084,0.0216663946466459,0.0007344540558185,0.0086094336543169,0.011588052880692,0.0016321201240411,0.0,0.4282275175452913,Pet Lovers
2337,2697,Patricia Tillery,female,0,0,0,1,12779.0,356.0,13.0,190.0,370.0,3.0,293.0,220.0,180.0,0.0,6364.0,29.0,2009,38.74752914099739,-9.19430470698374,1,0.2674870715364508,No Degree,0,82,20755.0,0.6157070585401108,0.0171524933750903,0.0091544206215369,0.0178270296314141,0.0001445434834979,0.0141170802216333,0.0105998554565165,0.0086726090098771,0.0,0.3066249096603228,Pet Lovers
2352,2714,Natasha Fortier,female,0,0,0,1,13764.0,119.0,7.0,169.0,533.0,7.0,123.0,119.0,135.0,0.0,8238.0,55.0,2013,38.72917929759211,-9.202227831649912,1,0.0411746238799885,No Degree,0,82,23207.0,0.593096910414961,0.0051277631749041,0.0072822855173008,0.0229672081699487,0.0003016331279355,0.0053001249622958,0.0051277631749041,0.005817210324471,0.0,0.3549791011332787,Pet Lovers
2361,2725,Paul Tarter,male,0,0,1,1,13703.0,326.0,8.0,268.0,455.0,1.0,109.0,276.0,15.0,0.0,11984.0,37.0,2016,38.75289058409229,-9.160577458934146,1,0.112386145711041,No Degree,0,41,27137.0,0.5049563326823157,0.0120131186203338,0.0098758153075137,0.0167667759885027,3.685005711758853e-05,0.0040166562258171,0.0101706157644544,0.0005527508567638,0.0,0.4416110844971809,Pet Lovers
2380,2746,Timothy Jones,male,0,0,0,1,6674.0,322.0,17.0,302.0,628.0,29.0,176.0,318.0,170.0,0.0,12110.0,69.0,2008,38.72071367348494,-9.163784444381708,1,0.0732395017915614,No Degree,0,66,20729.0,0.3219643977037001,0.0155337932365285,0.0145689613584832,0.0302957209706208,0.0013990062231656,0.0084905205267982,0.0153408268609194,0.0082010709633846,0.0,0.5842057021563992,Pet Lovers
2403,2773,Patsy Soto,female,0,0,1,1,5425.0,82.0,12.0,166.0,338.0,12.0,140.0,334.0,77.0,0.0,4692.0,72.0,2003,38.71945784768685,-9.156208724714718,1,0.0885662642345483,No Degree,0,55,11266.0,0.4815373690750932,0.0072785371915497,0.0147345996804544,0.0300017752529735,0.0010651517841292,0.0124267708148411,0.0296467246582638,0.0068347239481626,0.0,0.4164743475945322,Pet Lovers
2406,2776,Bruce Grindle,male,0,0,0,1,11924.0,10.0,17.0,131.0,506.0,37.0,210.0,116.0,10.0,0.0,8471.0,49.0,2010,38.75357629174292,-9.18721821804839,1,0.1137659162544552,No Degree,0,65,21415.0,0.5568059771188419,0.000466962409526,0.006117207564791,0.0236282979220172,0.0017277609152463,0.0098062106000466,0.0054167639505019,0.000466962409526,0.0,0.3955638571095027,Pet Lovers
2416,2787,James Martinez,male,0,0,0,1,1795.0,187.0,9.0,163.0,447.0,6.0,237.0,127.0,141.0,0.0,14455.0,24.0,2006,38.71860508213274,-9.20342282560802,1,0.1168222494857667,No Degree,0,70,17558.0,0.1022326005239776,0.0106504157648934,0.0092835174849071,0.0254584804647454,0.0003417245699965,0.013498120514865,0.0072331700649276,0.0080305273949196,0.0,0.8232714432167673,Pet Lovers
2438,2812,Lenore Stachowiak,female,0,0,0,1,6296.0,68.0,13.0,177.0,519.0,44.0,489.0,3.0,23.0,0.0,10452.0,70.0,2010,38.76186214555051,-9.182195527858877,1,0.1077630892907788,No Degree,0,53,18071.0,0.3484035194510542,0.0037629350893697,0.0097946986885064,0.028720048696807,0.0024348403519451,0.0270599302750262,0.000166011842178,0.0012727574566985,0.0,0.5783852581484146,Pet Lovers
2446,2820,Christopher Scott,male,0,0,0,1,10123.0,354.0,10.0,228.0,335.0,14.0,68.0,1471.4238457539814,30.0,0.0,16625.0,71.0,2012,38.76752308925949,-9.158695905777474,1,0.3060373119157158,No Degree,0,59,29248.423845753983,0.3461041201189227,0.0121032162918204,0.0077952918489691,0.0114536086377397,0.0004786582714279,0.0023249116040785,0.0503077996104596,0.0010256962959169,0.0,0.5684066973206648,Pet Lovers
2450,2825,Margaret Battle,female,0,0,0,1,5437.0,148.0,6.0,191.0,486.0,1.0,172.0,195.0,202.0,0.0,16328.0,41.0,2014,38.71356178899917,-9.143338487449665,1,0.3828426209892904,No Degree,0,58,23160.0,0.2347582037996545,0.0063903281519861,0.0082469775474956,0.0209844559585492,4.317789291882556e-05,0.0074265975820379,0.0084196891191709,0.0087219343696027,0.0,0.7050086355785837,Pet Lovers
2454,2830,Faye Short,female,0,0,0,1,7040.0,77.0,14.0,62.0,634.0,42.0,490.0,144.0,24.0,0.0,11080.0,47.0,2006,38.76148635038371,-9.19865183921564,1,0.2432764653476688,No Degree,0,55,19593.0,0.3593119991833818,0.0039299749910682,0.0031643954473536,0.0323584953810034,0.0021436227224008,0.0250089317613433,0.00734956361966,0.0012249272699433,0.0,0.5655080896238452,Pet Lovers
2459,2835,Tim Terepka,male,0,0,0,1,12350.0,10.0,14.0,175.0,421.0,17.0,37.0,392.0,131.0,0.0,9794.0,62.0,2009,38.73191278481241,-9.208190225461031,1,0.3849320175608668,No Degree,0,83,23327.0,0.5294294165559223,0.0004286877866849,0.0075020362669867,0.0180477558194367,0.0007287692373644,0.0015861448107343,0.0168045612380503,0.0056158100055729,0.0,0.4198568182792472,Pet Lovers
2494,2879,Ina Hopkins,female,0,0,0,1,11718.0,251.0,8.0,456.893937976519,455.0,46.0,354.0,249.0,120.0,0.0,8093.0,63.0,2008,38.76970432740792,-9.160078709229827,1,0.0578238201999215,No Degree,0,41,21742.89393797652,0.5389346990067929,0.0115440014892221,0.0210134832685956,0.0209263772015779,0.0021156337390606,0.0162811813832057,0.0114520174136108,0.0055190445366799,0.0,0.3722135619612541,Pet Lovers
2496,2882,Maria Johns,female,0,0,0,1,11475.0,45.0,9.0,104.0,344.0,21.0,358.0,97.0,24.0,0.0,4192.0,34.0,2017,38.76880294166155,-9.176220360596831,1,0.0643045240616708,No Degree,0,30,16660.0,0.6887755102040817,0.0027010804321728,0.0062424969987995,0.0206482593037214,0.0012605042016806,0.0214885954381752,0.0058223289315726,0.0014405762304921,0.0,0.2516206482593037,Pet Lovers
2500,2886,Lilia Cook,female,0,0,1,1,17802.0,149.0,15.0,141.0,544.0,61.0,329.0,294.0,57.0,0.0,8137.0,10.0,2017,38.78758665522073,-9.172020308581232,1,0.2609308469381586,No Degree,0,29,27514.0,0.6470160645489569,0.0054154248746092,0.0051246638075161,0.0197717525623319,0.002217053136585,0.0119575488842044,0.010685469215672,0.0020716726030384,0.0,0.2957403503670858,Pet Lovers
2504,2891,Bonnie Strauss,female,0,0,1,1,9353.0,91.0,17.0,160.0,280.0,47.0,147.0,259.0,9.0,0.0,8667.0,60.0,2009,38.74178979657478,-9.200740963491238,1,0.2900536965740258,No Degree,0,43,19013.0,0.4919265765528848,0.0047861989165307,0.0084152947982959,0.0147267658970178,0.0024719928469994,0.0077315520959343,0.0136222584547414,0.0004733603324041,0.0,0.4558460001051911,Pet Lovers
2507,2895,Norman Marlar,male,0,0,1,1,12228.0,86.0,13.52057966862436,427.0,479.0,29.0,99.0,224.0,103.0,0.0,10202.0,41.0,2011,38.73829434701719,-9.13795659341541,1,0.2772826117780012,No Degree,0,62,23877.0,0.5121246387737153,0.0036017925199983,0.0178833186748754,0.0200611467102232,0.0012145579427901,0.0041462495288352,0.0093814130753444,0.0043137747623235,0.0,0.4272731080118943,Pet Lovers
2512,2902,Marguerite Budreau,female,0,0,1,1,8422.0,194.0,14.0,33.0,423.0,32.0,188.0,171.0,96.0,0.0,8358.0,93.0,2016,38.72031737620206,-9.137331882897424,1,0.0835820481688382,No Degree,0,60,17917.0,0.4700563710442596,0.0108277055310598,0.0018418261985823,0.0236088630909192,0.0017860132834737,0.0104928280404085,0.009544008483563,0.0053580398504213,0.0,0.4664843444773121,Pet Lovers
2520,2911,Donald Nichols,male,0,0,0,1,9912.0,278.0,7.0,319.0,520.0,55.0,228.0,119.0,47.0,0.0,10936.0,67.0,2007,38.76757242814051,-9.1488593055245,1,0.1110218631575071,No Degree,0,43,22414.0,0.4422236102435977,0.0124029624341929,0.0142321763183724,0.0231997858481306,0.0024538235031676,0.0101722137949495,0.0053091817613991,0.0020969037208887,0.0,0.4879093423753011,Pet Lovers
2551,2944,Yvonne Daw,female,0,0,1,1,7053.0,40.0,10.0,263.0,396.0,48.0,259.0,3.0,129.0,0.0,11764.0,50.0,2009,38.74106460872555,-9.168862188467532,1,0.1444730323617051,No Degree,0,51,19955.0,0.3534452518165873,0.0020045101478326,0.0131796542219995,0.0198446504635429,0.0024054121773991,0.0129792032072162,0.0001503382610874,0.0064645452267602,0.0,0.5895264344775746,Pet Lovers
2559,2952,Gena Jones,female,1,0,0,1,4323.0,401.0,16.0,218.0,485.0,32.0,263.0,318.0,99.0,0.0,13843.0,79.0,2006,38.78467880343617,-9.151200936513623,1,0.265805423430618,No Degree,1,48,19982.0,0.2163447102392152,0.0200680612551296,0.0109098188369532,0.0242718446601941,0.0016014412971674,0.0131618456610949,0.0159143228906015,0.0049544590131118,0.0,0.6927734961465318,Pet Lovers
2562,2956,Michael Parr,male,0,0,1,1,10561.0,47.0,19.0,164.0,463.0,29.0,155.0,164.0,47.0,0.0,9731.0,19.0,2002,38.760980531553926,-9.194303682810768,1,0.1823017864744851,No Degree,0,70,21361.0,0.4944056926173868,0.0022002715228687,0.0076775431861804,0.0216750152146435,0.0013576143438977,0.0072562145966949,0.0076775431861804,0.0022002715228687,0.0,0.4555498338092786,Pet Lovers
2563,2957,Gloria Elam,female,1,0,0,1,13379.0,399.0,10.0,225.0,465.0,20.0,296.0,51.0,96.0,0.0,14324.0,32.0,2012,38.730811923923405,-9.13364996707078,1,0.1259962184159318,No Degree,1,60,29255.0,0.4573235344385575,0.0136386942403008,0.0076909929926508,0.0158947188514783,0.0006836438215689,0.0101179285592206,0.0017432917450008,0.003281490343531,0.0,0.489625705007691,Pet Lovers
2565,2959,Daisy Sawyer,female,0,0,1,1,9572.0,283.0,17.0,253.0,497.0,49.0,70.0,249.0,74.0,0.0,10990.0,24.0,2008,38.72229194713514,-9.159030663206767,1,0.1111340284006344,No Degree,0,72,22037.0,0.4343603938830149,0.0128420383899804,0.0114806915641875,0.0225529790806371,0.0022235331487952,0.0031764759268502,0.0112991786540817,0.003357988836956,0.0,0.4987067205154966,Pet Lovers
2569,2966,Margaret Sowell,female,0,0,0,1,7076.0,181.0,10.0,58.0,468.0,107.0,301.0,89.0,3.0,0.0,6956.0,36.0,2022,38.77636419429642,-9.134160270468955,1,0.2531067419888138,No Degree,0,24,15239.0,0.4643349301135245,0.0118774197782006,0.0038060240173239,0.0307106765535796,0.0070214581009252,0.0197519522278364,0.0058402782334798,0.0001968633112408,0.0,0.4564603976638887,Pet Lovers
2585,2984,Charles Cooper,male,0,0,0,1,6061.0,16.0,17.0,60.0,619.0,15.0,92.0,154.0,130.0,0.0,11377.0,77.0,2001,38.75705577424724,-9.145479424775562,1,0.2593577111448475,No Degree,0,60,18524.0,0.3271971496437054,0.0008637443316778,0.0032390412437918,0.0334161088317857,0.0008097603109479,0.0049665299071474,0.008313539192399,0.0070179226948823,0.0,0.6141762038436622,Pet Lovers
2615,3024,Peggy Shanks,female,0,0,0,1,10990.0,87.0,9.0,234.0,394.0,13.0,39.0,124.0,0.0,0.0,11354.0,10.0,2012,38.71474052872339,-9.189961270816651,1,0.0622782427571346,No Degree,0,70,23235.0,0.4729933290294814,0.0037443511943189,0.0100710135571336,0.0169571766731224,0.000559500753174,0.0016785022595222,0.0053367764148913,0.0,0.0,0.4886593501183559,Pet Lovers
2627,3038,Aimee Evans,female,0,0,1,1,8837.0,203.0,9.0,121.0,560.0,70.0,97.0,197.0,72.0,0.0,8294.0,14.0,2008,38.715628500474885,-9.197736682243155,1,0.2970925293091108,No Degree,0,58,18451.0,0.4789442306650046,0.0110021137065741,0.0065579101403717,0.0303506585008942,0.0037938323126117,0.0052571676331906,0.0106769280797788,0.0039022275215435,0.0,0.4495149314400303,Pet Lovers
2631,3046,Olivia Brown,female,0,0,1,1,5040.0,22.0,7.0,238.0,390.0,52.0,327.0,1471.4238457539814,10.0,0.0,14735.0,99.0,2007,38.72679420477747,-9.187790365871315,1,0.3152466269655939,No Degree,0,45,22285.423845753983,0.2261567935563525,0.0009871923528253,0.0106796263623833,0.0175002280728129,0.0023333637430417,0.0146732681533585,0.0660262894678725,0.0004487237967387,0.0,0.6611945144946141,Pet Lovers
2646,3064,Benny Romero,male,0,0,1,1,8657.0,61.0,7.0,102.0,407.0,4.0,75.0,387.0,27.0,0.0,8044.0,94.0,2010,38.75115309097741,-9.178761546535553,1,0.1351645735437324,No Degree,0,67,17764.0,0.487333933798694,0.0034339112812429,0.0057419500112587,0.0229115064174735,0.0002251745102454,0.004222022067102,0.0217856338662463,0.0015199279441567,0.0,0.4528259401035803,Pet Lovers
2659,3077,Tonya Glenn,female,0,0,1,1,12761.0,225.0,13.52057966862436,135.0,513.0,17.0,238.0,223.0,42.0,0.0,9768.0,47.0,2016,38.74686201029606,-9.16743438395084,1,0.4876148392348123,No Degree,0,45,23922.0,0.5334420198980019,0.009405568096313,0.0056433408577878,0.0214446952595936,0.0007106429228325,0.0099490009196555,0.009321963046568,0.001755706044645,0.0,0.4083270629546024,Pet Lovers
2660,3079,William Williams,male,0,0,1,1,12363.0,224.0,17.0,53.0,516.0,34.0,158.0,182.0,41.0,0.0,6846.0,15.0,2007,38.75354292176004,-9.16262392212699,1,0.192219410802598,No Degree,0,67,20417.0,0.6055248077582407,0.0109712494489885,0.0025958759856981,0.0252730567664201,0.0016652789342214,0.0077386491649115,0.0089141401773032,0.0020081304795023,0.0,0.3353088112847137,Pet Lovers
2666,3087,Cynthia Morrison,female,0,0,1,1,15307.0,149.0,17.0,54.0,601.0,18.0,134.0,202.0,172.0,0.0,6671.0,91.0,2010,38.77836862378285,-9.190072632714807,1,0.3453402227657506,No Degree,0,35,23308.0,0.6567273039299811,0.0063926548824437,0.0023168010983353,0.0257851381499914,0.0007722670327784,0.005749099021795,0.0086665522567358,0.0073794405354384,0.0,0.2862107430925004,Pet Lovers
2673,3099,Connie Cronan,female,0,0,1,1,5015.0,17.0,15.0,136.0,477.0,37.0,81.0,1471.4238457539814,2.0,0.0,9915.0,63.0,2011,38.72967274416538,-9.1354785047438,1,0.04508853882318,No Degree,0,34,17151.423845753983,0.2923955494949485,0.0009911713542201,0.0079293708337613,0.0278111021154716,0.0021572553003615,0.0047226399818725,0.0857901862251656,0.0001166083946141,0.0,0.5780861162995843,Pet Lovers
2680,3106,Angel Williams,male,0,0,1,1,9705.0,110.0,14.0,209.0,523.0,27.0,72.0,376.0,54.0,0.0,14213.0,77.0,2012,38.75716179081234,-9.163603012325126,1,0.2875542695490198,No Degree,0,51,25289.0,0.3837636917236743,0.0043497172683775,0.0082644628099173,0.0206809284669223,0.0010676578749654,0.0028470876665743,0.0148681244809996,0.0021353157499308,0.0,0.5620230139586382,Pet Lovers
2681,3109,Martha Wolley,female,0,0,0,1,14786.0,48.0,13.0,43.0,445.0,46.0,162.0,148.0,74.0,0.0,11500.0,75.0,2011,38.76899937044196,-9.191148289918818,1,0.3250669793437221,No Degree,0,62,27252.0,0.5425656832526053,0.0017613386173491,0.0015778658447086,0.016329076765008,0.0016879495082929,0.0059445178335535,0.0054307940701599,0.0027153970350799,0.0,0.4219873770732423,Pet Lovers
2688,3116,Robert Dyson,male,0,0,1,1,15907.0,24.0,10.0,130.0,499.0,45.0,252.0,300.0,4.0,0.0,13753.0,59.0,2003,38.74843196620133,-9.209639174878452,1,0.2270042085934659,No Degree,0,47,30914.0,0.5145565116128615,0.0007763472860192,0.0042052144659377,0.0161415539884841,0.0014556511612861,0.0081516465032024,0.0097043410752409,0.0001293912143365,0.0,0.4448793426926312,Pet Lovers
2690,3118,Otis Buchanan,male,0,0,0,1,13945.0,11.0,14.0,68.0,561.0,24.0,272.0,63.0,80.0,0.0,8870.0,66.0,2009,38.72389397662749,-9.198250442831114,1,0.0591208220511385,No Degree,0,78,23894.0,0.5836193186574036,0.0004603666192349,0.0028459027370888,0.0234786975809826,0.0010044362601489,0.0113836109483552,0.0026366451828911,0.0033481208671633,0.0,0.3712229011467314,Pet Lovers
2699,3128,Louis Morales,male,0,0,0,1,3545.0,326.0,18.0,379.0,486.0,69.0,275.0,262.0,21.0,0.0,6122.0,42.0,2011,38.710944233240575,-9.191398226280953,1,0.1294845136003699,No Degree,0,36,11485.0,0.3086634740966478,0.0283848498040922,0.0329995646495428,0.0423160644318676,0.0060078363082281,0.0239442751414888,0.0228123639529821,0.0018284719198955,0.0,0.5330430996952547,Pet Lovers
2715,3145,Vincent Ramirez,male,0,0,1,1,10696.0,205.0,6.0,50.0,411.0,14.0,303.0,179.0,27.0,0.0,10168.0,52.0,2005,38.711354802242965,-9.178401183594364,1,0.188438150537937,No Degree,0,66,22053.0,0.4850133768648256,0.0092957874212125,0.0022672652246859,0.0186369201469187,0.000634834262912,0.013739627261597,0.0081168095043758,0.0012243232213304,0.0,0.4610710560921416,Pet Lovers
2731,3163,Thomas Young,male,0,0,0,1,10534.0,14.0,12.0,310.0,455.0,2.0,72.0,180.0,15.0,0.0,11502.0,18.0,2012,38.72346086198576,-9.154023354340133,1,0.1473692274982845,No Degree,0,39,23084.0,0.456333391093398,0.0006064806792583,0.0134292150407208,0.0197106220758967,8.664009703690868e-05,0.0031190434933287,0.0077976087333217,0.0006498007277768,0.0,0.4982671980592618,Pet Lovers
2744,3178,Patrick Cooper,male,0,0,1,1,7321.0,367.0,6.0,312.0,528.0,66.0,180.0,324.0,46.0,0.0,6831.0,87.0,2008,38.73341075659237,-9.19787262225366,1,0.3986546572574938,No Degree,0,69,15975.0,0.4582785602503912,0.0229733959311424,0.0195305164319248,0.0330516431924882,0.004131455399061,0.0112676056338028,0.020281690140845,0.0028794992175273,0.0,0.4276056338028169,Pet Lovers
2748,3183,Arturo Jones,male,0,0,0,1,14061.0,95.0,14.0,317.0,523.0,24.0,263.0,371.0,121.0,0.0,9126.0,60.0,2007,38.72470099813542,-9.20352697436307,1,0.0782530372830728,No Degree,0,69,24901.0,0.564676117425003,0.0038151078269949,0.0127304124332356,0.0210031725633508,0.0009638167141881,0.0105618248263121,0.014899000040159,0.0048592426006987,0.0,0.3664913055700574,Pet Lovers
2749,3184,William Heiliger,male,0,0,0,1,4520.0,24.0,10.0,110.0,486.0,16.0,53.0,244.0,11.0,0.0,14166.0,98.0,2010,38.71799889079141,-9.167508802741498,1,0.150530174415648,No Degree,0,56,19630.0,0.2302598064187468,0.0012226184411614,0.0056036678553234,0.0247580234335201,0.0008150789607743,0.0026999490575649,0.0124299541518084,0.0005603667855323,0.0,0.721650534895568,Pet Lovers
2769,3209,Trisha Thompson,female,0,0,0,1,11100.0,239.0,12.0,74.0,679.0,31.0,265.0,117.0,51.0,0.0,15858.0,76.0,2013,38.757934603920965,-9.205243516994075,1,0.2835667241655103,No Degree,0,74,28414.0,0.390652495248821,0.0084113465193214,0.0026043499683254,0.0238966706553107,0.0010910114732174,0.0093263884000844,0.0041176884634335,0.0017948898430351,0.0,0.5581051594284507,Pet Lovers
2778,3218,Donnell Taylor,male,0,0,0,1,6777.0,189.0,11.0,166.0,476.0,38.0,203.0,264.0,108.0,0.0,10356.0,39.0,2012,38.76881175833151,-9.194768740121676,1,0.1411165641322285,No Degree,0,56,18577.0,0.3648059428325348,0.0101738709156483,0.0089357808042202,0.0256230823060774,0.0020455401840986,0.0109274909834741,0.0142111212790009,0.0058136405232276,0.0,0.5574635301717177,Pet Lovers
2779,3219,Randall Mininger,male,0,0,0,1,12679.0,24.0,10.0,205.0,472.0,94.0,224.0,101.0,22.0,0.0,7236.0,69.0,2011,38.77187061686241,-9.19500206381056,1,0.3154335239181948,No Degree,0,70,21057.0,0.6021275585316047,0.0011397634990739,0.0097354798879232,0.0224153488151208,0.0044640737047062,0.0106377926580234,0.0047965047252695,0.0010447832074844,0.0,0.3436386949707936,Pet Lovers
2789,3230,James Palmer,male,0,0,1,1,17635.0,302.0,11.0,126.0,635.0,102.0,147.0,289.0,0.0,0.0,12190.0,65.0,2018,38.78066602345803,-9.150103852671878,1,0.3637801802413569,No Degree,0,29,31426.0,0.5611595494176796,0.0096098771717685,0.0040094189524597,0.0202061986889836,0.0032457201043721,0.0046776554445363,0.0091962069623878,0.0,0.0,0.387895373257812,Pet Lovers
